FIPS,State,County,Latitude,Longitude,Population in 2014,Coded IECC Climate Zone,IECC Climate Zone,IECC Moisture Regime,Census Region,EIA Climate Zone,BA #,Station WMO Identifier,Station Latitude,Station Longitude
01001,Alabama,Autauga County,32.50,-86.49,55395,5,3,A,3,5,,722195,33.77,-84.52
01003,Alabama,Baldwin County,30.55,-87.76,200111,3,2,A,3,5,,722430,30.00,-95.37
01005,Alabama,Barbour County,31.84,-85.31,26887,5,3,A,3,5,,722195,33.77,-84.52
01007,Alabama,Bibb County,33.03,-87.13,22506,5,3,A,3,4,,722195,33.77,-84.52
01009,Alabama,Blount County,33.96,-86.59,57719,5,3,A,3,4,,722195,33.77,-84.52
01011,Alabama,Bullock County,32.12,-85.70,10764,5,3,A,3,5,,722195,33.77,-84.52
01013,Alabama,Butler County,31.77,-86.65,20296,5,3,A,3,5,,722195,33.77,-84.52
01015,Alabama,Calhoun County,33.73,-85.82,115916,5,3,A,3,4,,722195,33.77,-84.52
01017,Alabama,Chambers County,32.86,-85.27,34076,5,3,A,3,4,,722195,33.77,-84.52
01019,Alabama,Cherokee County,34.18,-85.63,26037,5,3,A,3,4,,722195,33.77,-84.52
01021,Alabama,Chilton County,32.88,-86.69,43931,5,3,A,3,4,,722195,33.77,-84.52
01023,Alabama,Choctaw County,32.02,-88.26,13323,5,3,A,3,5,,722195,33.77,-84.52
01025,Alabama,Clarke County,31.69,-87.82,24945,5,3,A,3,5,,722195,33.77,-84.52
01027,Alabama,Clay County,33.27,-85.82,13552,5,3,A,3,4,,722195,33.77,-84.52
01029,Alabama,Cleburne County,33.63,-85.49,15080,5,3,A,3,4,,722195,33.77,-84.52
01031,Alabama,Coffee County,31.35,-85.90,50909,5,3,A,3,5,,722195,33.77,-84.52
01033,Alabama,Colbert County,34.72,-87.69,54543,5,3,A,3,4,,722195,33.77,-84.52
01035,Alabama,Conecuh County,31.42,-87.00,12670,5,3,A,3,5,,722195,33.77,-84.52
01037,Alabama,Coosa County,32.98,-86.16,10886,5,3,A,3,4,,722195,33.77,-84.52
01039,Alabama,Covington County,31.28,-86.41,37914,5,3,A,3,5,,722195,33.77,-84.52
01041,Alabama,Crenshaw County,31.74,-86.30,13977,5,3,A,3,5,,722195,33.77,-84.52
01043,Alabama,Cullman County,34.16,-86.83,81289,5,3,A,3,4,,722195,33.77,-84.52
01045,Alabama,Dale County,31.38,-85.64,49484,5,3,A,3,5,,722195,33.77,-84.52
01047,Alabama,Dallas County,32.41,-87.03,41711,5,3,A,3,5,,722195,33.77,-84.52
01049,Alabama,DeKalb County,34.46,-85.82,71065,5,3,A,3,4,,722195,33.77,-84.52
01051,Alabama,Elmore County,32.56,-86.23,80977,5,3,A,3,4,,722195,33.77,-84.52
01053,Alabama,Escambia County,31.09,-87.28,37733,5,3,A,3,5,,722195,33.77,-84.52
01055,Alabama,Etowah County,34.01,-86.03,103531,5,3,A,3,4,,722195,33.77,-84.52
01057,Alabama,Fayette County,33.73,-87.77,16874,5,3,A,3,4,,722195,33.77,-84.52
01059,Alabama,Franklin County,34.46,-87.79,31601,5,3,A,3,4,,722195,33.77,-84.52
01061,Alabama,Geneva County,31.09,-85.79,26712,5,3,A,3,5,,722195,33.77,-84.52
01063,Alabama,Greene County,32.83,-87.92,8553,5,3,A,3,5,,722195,33.77,-84.52
01065,Alabama,Hale County,32.78,-87.63,15184,5,3,A,3,5,,722195,33.77,-84.52
01067,Alabama,Henry County,31.48,-85.27,17190,5,3,A,3,5,,722195,33.77,-84.52
01069,Alabama,Houston County,31.20,-85.39,104193,5,3,A,3,5,,722195,33.77,-84.52
01071,Alabama,Jackson County,34.73,-85.94,52665,5,3,A,3,4,,722195,33.77,-84.52
01073,Alabama,Jefferson County,33.52,-86.81,660793,5,3,A,3,4,,722195,33.77,-84.52
01075,Alabama,Lamar County,33.76,-88.11,14086,5,3,A,3,4,,722195,33.77,-84.52
01077,Alabama,Lauderdale County,34.87,-87.61,93096,5,3,A,3,4,,722195,33.77,-84.52
01079,Alabama,Lawrence County,34.54,-87.27,33477,5,3,A,3,4,,722195,33.77,-84.52
01081,Alabama,Lee County,32.59,-85.35,154255,5,3,A,3,4,,722195,33.77,-84.52
01083,Alabama,Limestone County,34.82,-86.94,90787,5,3,A,3,4,,722195,33.77,-84.52
01085,Alabama,Lowndes County,32.16,-86.62,10580,5,3,A,3,5,,722195,33.77,-84.52
01087,Alabama,Macon County,32.43,-85.72,19425,5,3,A,3,5,,722195,33.77,-84.52
01089,Alabama,Madison County,34.75,-86.61,350299,5,3,A,3,4,,722195,33.77,-84.52
01091,Alabama,Marengo County,32.34,-87.80,20110,5,3,A,3,5,,722195,33.77,-84.52
01093,Alabama,Marion County,34.11,-87.87,30271,5,3,A,3,4,,722195,33.77,-84.52
01095,Alabama,Marshall County,34.31,-86.29,94636,5,3,A,3,4,,722195,33.77,-84.52
01097,Alabama,Mobile County,30.68,-88.17,415123,3,2,A,3,5,,722430,30.00,-95.37
01099,Alabama,Monroe County,31.51,-87.36,21947,5,3,A,3,5,,722195,33.77,-84.52
01101,Alabama,Montgomery County,32.35,-86.24,226189,5,3,A,3,5,,722195,33.77,-84.52
01103,Alabama,Morgan County,34.51,-86.93,119607,5,3,A,3,4,,722195,33.77,-84.52
01105,Alabama,Perry County,32.58,-87.37,9826,5,3,A,3,5,,722195,33.77,-84.52
01107,Alabama,Pickens County,33.29,-88.07,20365,5,3,A,3,4,,722195,33.77,-84.52
01109,Alabama,Pike County,31.79,-85.95,33389,5,3,A,3,5,,722195,33.77,-84.52
01111,Alabama,Randolph County,33.26,-85.43,22539,5,3,A,3,4,,722195,33.77,-84.52
01113,Alabama,Russell County,32.42,-85.06,59608,5,3,A,3,5,,722195,33.77,-84.52
01115,Alabama,Shelby County,33.29,-86.74,206655,5,3,A,3,4,,722195,33.77,-84.52
01117,Alabama,St. Clair County,33.66,-86.37,86697,5,3,A,3,4,,722195,33.77,-84.52
01119,Alabama,Sumter County,32.57,-88.23,13166,5,3,A,3,5,,722195,33.77,-84.52
01121,Alabama,Talladega County,33.37,-86.17,81322,5,3,A,3,4,,722195,33.77,-84.52
01123,Alabama,Tallapoosa County,32.85,-85.86,41165,5,3,A,3,4,,722195,33.77,-84.52
01125,Alabama,Tuscaloosa County,33.21,-87.52,202212,5,3,A,3,4,,722195,33.77,-84.52
01127,Alabama,Walker County,33.83,-87.25,65471,5,3,A,3,4,,722195,33.77,-84.52
01129,Alabama,Washington County,31.41,-88.19,16834,5,3,A,3,5,,722195,33.77,-84.52
01131,Alabama,Wilcox County,32.00,-87.38,11098,5,3,A,3,5,,722195,33.77,-84.52
01133,Alabama,Winston County,34.16,-87.42,24150,5,3,A,3,4,,722195,33.77,-84.52
04001,Arizona,Apache County,35.58,-109.41,71828,12,5,B,4,2,117,725755,41.12,-111.97
04003,Arizona,Cochise County ,31.61,-110.06,127448,6,3,B,4,4,162,722700,31.77,-106.50
04005,Arizona,Coconino County,35.51,-111.59,137682,12,5,B,4,2,16,725755,41.12,-111.97
04007,Arizona,Gila County,33.82,-111.01,53119,9,4,B,4,4,16,723723,34.65,-112.42
04009,Arizona,Graham County,32.87,-109.81,37957,6,3,B,4,4,162,722700,31.77,-106.50
04011,Arizona,Greenlee County,32.97,-109.25,9346,6,3,B,4,4,162,722700,31.77,-106.50
04012,Arizona,La Paz County,33.91,-114.17,20231,4,2,B,4,5,16,699604,32.65,-114.62
04013,Arizona,Maricopa County,33.49,-112.04,4087191,4,2,B,4,5,16,722780,33.45,-111.98
04015,Arizona,Mohave County,35.07,-114.25,203361,6,3,B,4,5,16,723865,36.25,-115.03
04017,Arizona,Navajo County,34.89,-110.21,108101,12,5,B,4,2,16,725755,41.12,-111.97
04019,Arizona,Pima County,32.22,-110.96,1004516,4,2,B,4,4,155,722745,32.17,-110.88
04021,Arizona,Pinal County,33.06,-111.59,401918,4,2,B,4,5,16,722780,33.45,-111.98
04023,Arizona,Santa Cruz County,31.43,-110.94,46695,6,3,B,4,4,16,722700,31.77,-106.50
04025,Arizona,Yavapai County,34.63,-112.27,218844,9,4,B,4,4,16,723723,34.65,-112.42
04027,Arizona,Yuma County,32.65,-114.60,203247,4,2,B,4,5,16,699604,32.65,-114.62
05001,Arkansas,Arkansas County,34.41,-91.46,18594,5,3,A,3,4,,723403,34.75,-92.23
05003,Arkansas,Ashley County,33.18,-91.87,20948,5,3,A,3,5,,723403,34.75,-92.23
05005,Arkansas,Baxter County,36.33,-92.38,40857,8,4,A,3,3,,724460,39.30,-94.72
05007,Arkansas,Benton County,36.34,-94.23,242321,8,4,A,3,3,,724460,39.30,-94.72
05009,Arkansas,Boone County,36.27,-93.10,37196,8,4,A,3,3,,724460,39.30,-94.72
05011,Arkansas,Bradley County,33.57,-92.10,11148,5,3,A,3,4,,723403,34.75,-92.23
05013,Arkansas,Calhoun County,33.59,-92.50,5202,5,3,A,3,4,,723403,34.75,-92.23
05015,Arkansas,Carroll County,36.37,-93.57,27744,8,4,A,3,3,,724460,39.30,-94.72
05017,Arkansas,Chicot County,33.32,-91.32,11180,5,3,A,3,5,,723403,34.75,-92.23
05019,Arkansas,Clark County,34.09,-93.12,22576,5,3,A,3,4,,723403,34.75,-92.23
05021,Arkansas,Clay County,36.37,-90.37,15118,5,3,A,3,4,,723403,34.75,-92.23
05023,Arkansas,Cleburne County,35.51,-92.04,25634,5,3,A,3,3,,723403,34.75,-92.23
05025,Arkansas,Cleveland County,33.91,-92.14,8449,5,3,A,3,4,,723403,34.75,-92.23
05027,Arkansas,Columbia County,33.26,-93.25,23933,5,3,A,3,4,,723403,34.75,-92.23
05029,Arkansas,Conway County,35.21,-92.70,21083,5,3,A,3,4,,723403,34.75,-92.23
05031,Arkansas,Craighead County,35.84,-90.67,102518,5,3,A,3,4,,723403,34.75,-92.23
05033,Arkansas,Crawford County,35.50,-94.28,61697,5,3,A,3,4,,723403,34.75,-92.23
05035,Arkansas,Crittenden County,35.18,-90.22,49548,5,3,A,3,4,,723403,34.75,-92.23
05037,Arkansas,Cross County,35.25,-90.78,17227,5,3,A,3,4,,723403,34.75,-92.23
05039,Arkansas,Dallas County,33.87,-92.53,7755,5,3,A,3,4,,723403,34.75,-92.23
05041,Arkansas,Desha County,33.77,-91.42,12264,5,3,A,3,5,,723403,34.75,-92.23
05043,Arkansas,Drew County,33.63,-91.78,18622,5,3,A,3,5,,723403,34.75,-92.23
05045,Arkansas,Faulkner County,35.10,-92.41,120768,5,3,A,3,4,,723403,34.75,-92.23
05047,Arkansas,Franklin County,35.45,-93.89,17805,5,3,A,3,4,,723403,34.75,-92.23
05049,Arkansas,Fulton County,36.38,-91.76,12125,8,4,A,3,3,,724460,39.30,-94.72
05051,Arkansas,Garland County,34.51,-93.08,97322,5,3,A,3,4,,723403,34.75,-92.23
05053,Arkansas,Grant County,34.31,-92.41,18144,5,3,A,3,4,,723403,34.75,-92.23
05055,Arkansas,Greene County,36.07,-90.52,43694,5,3,A,3,4,,723403,34.75,-92.23
05057,Arkansas,Hempstead County,33.70,-93.62,22327,5,3,A,3,4,,723403,34.75,-92.23
05059,Arkansas,Hot Spring County,34.35,-92.89,33368,5,3,A,3,4,,723403,34.75,-92.23
05061,Arkansas,Howard County,33.98,-93.91,13500,5,3,A,3,4,,723403,34.75,-92.23
05063,Arkansas,Independence County,35.75,-91.61,36959,5,3,A,3,4,,723403,34.75,-92.23
05065,Arkansas,Izard County,36.12,-91.91,13486,8,4,A,3,3,,724460,39.30,-94.72
05067,Arkansas,Jackson County,35.62,-91.25,17534,5,3,A,3,4,,723403,34.75,-92.23
05069,Arkansas,Jefferson County,34.23,-92.04,72297,5,3,A,3,5,,723403,34.75,-92.23
05071,Arkansas,Johnson County,35.48,-93.48,26005,5,3,A,3,4,,723403,34.75,-92.23
05073,Arkansas,Lafayette County,33.29,-93.56,7111,5,3,A,3,4,,723403,34.75,-92.23
05075,Arkansas,Lawrence County,36.07,-91.07,16931,5,3,A,3,4,,723403,34.75,-92.23
05077,Arkansas,Lee County,34.79,-90.77,9860,5,3,A,3,4,,723403,34.75,-92.23
05079,Arkansas,Lincoln County,33.98,-91.75,13970,5,3,A,3,5,,723403,34.75,-92.23
05081,Arkansas,Little River County,33.70,-94.20,12532,5,3,A,3,4,,723403,34.75,-92.23
05083,Arkansas,Logan County,35.23,-93.77,21958,5,3,A,3,4,,723403,34.75,-92.23
05085,Arkansas,Lonoke County,34.91,-91.97,71557,5,3,A,3,4,,723403,34.75,-92.23
05087,Arkansas,Madison County,36.06,-93.76,15740,8,4,A,3,3,,724460,39.30,-94.72
05089,Arkansas,Marion County,36.28,-92.66,16367,8,4,A,3,3,,724460,39.30,-94.72
05091,Arkansas,Miller County,33.40,-93.99,43428,5,3,A,3,4,,723403,34.75,-92.23
05093,Arkansas,Mississippi County,35.84,-90.00,44235,5,3,A,3,4,,723403,34.75,-92.23
05095,Arkansas,Monroe County,34.78,-91.22,7582,5,3,A,3,4,,723403,34.75,-92.23
05097,Arkansas,Montgomery County,34.52,-93.62,9082,5,3,A,3,4,,723403,34.75,-92.23
05099,Arkansas,Nevada County,33.72,-93.36,8723,5,3,A,3,4,,723403,34.75,-92.23
05101,Arkansas,Newton County,35.98,-93.17,7904,8,4,A,3,3,,724460,39.30,-94.72
05103,Arkansas,Ouachita County,33.57,-92.84,24828,5,3,A,3,4,,723403,34.75,-92.23
05105,Arkansas,Perry County,35.00,-92.78,10245,5,3,A,3,4,,723403,34.75,-92.23
05107,Arkansas,Phillips County,34.53,-90.71,19930,5,3,A,3,4,,723403,34.75,-92.23
05109,Arkansas,Pike County,34.19,-93.62,11024,5,3,A,3,4,,723403,34.75,-92.23
05111,Arkansas,Poinsett County,35.60,-90.56,24246,5,3,A,3,4,,723403,34.75,-92.23
05113,Arkansas,Polk County,34.52,-94.26,20225,5,3,A,3,4,,723403,34.75,-92.23
05115,Arkansas,Pope County,35.31,-93.10,63201,5,3,A,3,4,,723403,34.75,-92.23
05117,Arkansas,Prairie County,34.86,-91.54,8304,5,3,A,3,4,,723403,34.75,-92.23
05119,Arkansas,Pulaski County,34.77,-92.31,392702,5,3,A,3,4,,723403,34.75,-92.23
05121,Arkansas,Randolph County,36.30,-90.99,17571,5,3,A,3,4,,723403,34.75,-92.23
05123,Arkansas,St. Francis County,35.02,-90.77,26899,5,3,A,3,4,,723403,34.75,-92.23
05125,Arkansas,Saline County,34.59,-92.55,115719,5,3,A,3,4,,723403,34.75,-92.23
05127,Arkansas,Scott County,34.91,-94.10,10693,5,3,A,3,4,,723403,34.75,-92.23
05129,Arkansas,Searcy County,35.92,-92.66,7929,8,4,A,3,3,,724460,39.30,-94.72
05131,Arkansas,Sebastian County,35.32,-94.35,126776,5,3,A,3,4,,723403,34.75,-92.23
05133,Arkansas,Sevier County,34.01,-94.30,17426,5,3,A,3,4,,723403,34.75,-92.23
05135,Arkansas,Sharp County,36.18,-91.52,16906,5,3,A,3,3,,723403,34.75,-92.23
05137,Arkansas,Stone County,35.86,-92.14,12494,8,4,A,3,3,,724460,39.30,-94.72
05139,Arkansas,Union County,33.21,-92.65,40227,5,3,A,3,4,,723403,34.75,-92.23
05141,Arkansas,Van Buren County,35.57,-92.42,16851,5,3,A,3,3,,723403,34.75,-92.23
05143,Arkansas,Washington County,36.09,-94.17,220792,8,4,A,3,3,,724460,39.30,-94.72
05145,Arkansas,White County,35.24,-91.77,78592,5,3,A,3,4,,723403,34.75,-92.23
05147,Arkansas,Woodruff County,35.23,-91.25,6910,5,3,A,3,4,,723403,34.75,-92.23
05149,Arkansas,Yell County,35.12,-93.29,21951,5,3,A,3,4,,723403,34.75,-92.23
06001,California,Alameda County,37.71,-122.10,1610921,6,3,B,4,4,116,724920,37.90,-121.23
06003,California,Alpine County,38.73,-119.85,1116,14,6,B,4,1,138,725785,43.52,-112.07
06005,California,Amador County,38.39,-120.78,36742,9,4,B,4,4,116,725846,39.32,-120.13
06007,California,Butte County,39.67,-121.71,224241,6,3,B,4,3,116,724920,37.90,-121.23
06009,California,Calaveras County,38.16,-120.63,44624,9,4,B,4,4,116,725846,39.32,-120.13
06011,California,Colusa County,39.16,-122.09,21419,6,3,B,4,3,116,724920,37.90,-121.23
06013,California,Contra Costa County,37.94,-122.03,1111339,6,3,B,4,4,116,724920,37.90,-121.23
06015,California,Del Norte County,41.79,-124.16,27212,10,4,C,4,4,118,725945,40.98,-124.10
06017,California,El Dorado County,38.75,-120.74,183087,9,4,B,4,4,138,725846,39.32,-120.13
06019,California,Fresno County,36.74,-119.77,965974,6,3,B,4,4,116,724920,37.90,-121.23
06021,California,Glenn County,39.66,-122.18,27955,6,3,B,4,3,116,724920,37.90,-121.23
06023,California,Humboldt County,40.75,-124.09,134809,10,4,C,4,4,116,725945,40.98,-124.10
06025,California,Imperial County,32.84,-115.53,179091,4,2,B,4,5,73,699604,32.65,-114.62
06027,California,Inyo County,37.16,-118.27,18410,9,4,B,4,5,195,724800,37.37,-118.35
06029,California,Kern County,35.37,-118.94,874589,6,3,B,4,4,116,722880,34.20,-118.35
06031,California,Kings County,36.24,-119.73,150269,6,3,B,4,4,195,724920,37.90,-121.23
06033,California,Lake County,38.97,-122.73,64184,9,4,B,4,4,116,725846,39.32,-120.13
06035,California,Lassen County,40.39,-120.58,31749,12,5,B,4,1,116,725830,40.90,-117.80
06037,California,Los Angeles County,34.07,-118.24,10116705,6,3,B,4,4,84,722880,34.20,-118.35
06039,California,Madera County,37.04,-120.01,154548,6,3,B,4,4,116,724920,37.90,-121.23
06041,California,Marin County,37.99,-122.55,260750,7,3,C,4,4,116,724940,37.62,-122.40
06043,California,Mariposa County,37.54,-119.96,17682,9,4,B,4,4,116,724800,37.37,-118.35
06045,California,Mendocino County,39.29,-123.40,87869,7,3,C,4,4,116,724940,37.62,-122.40
06047,California,Merced County,37.28,-120.62,266353,6,3,B,4,4,116,724920,37.90,-121.23
06049,California,Modoc County,41.52,-120.65,9023,12,5,B,4,3,118,725830,40.90,-117.80
06051,California,Mono County,37.76,-118.97,13997,14,6,B,4,1,195,725785,43.52,-112.07
06053,California,Monterey County,36.61,-121.65,431344,7,3,C,4,4,116,724915,36.60,-121.87
06055,California,Napa County,38.33,-122.32,141667,7,3,C,4,4,116,724940,37.62,-122.40
06057,California,Nevada County,39.22,-120.92,98893,12,5,B,4,3,116,725830,40.90,-117.80
06059,California,Orange County,33.73,-117.86,3145515,6,3,B,4,4,135,722880,34.20,-118.35
06061,California,Placer County,38.84,-121.18,371694,6,3,B,4,3,116,724920,37.90,-121.23
06063,California,Plumas County,39.98,-120.83,18606,12,5,B,4,3,116,725830,40.90,-117.80
06065,California,Riverside County,33.80,-117.07,2329271,6,3,B,4,5,195,722880,34.20,-118.35
06067,California,Sacramento County,38.57,-121.38,1482026,6,3,B,4,4,132,724920,37.90,-121.23
06069,California,San Benito County,36.84,-121.40,58267,6,3,B,4,4,116,724920,37.90,-121.23
06071,California,San Bernardino County,34.19,-117.36,2112619,6,3,B,4,5,195,723865,36.25,-115.03
06073,California,San Diego County,32.88,-117.11,3263431,6,3,B,4,4,135,722880,34.20,-118.35
06075,California,San Francisco County,37.76,-122.44,852469,7,3,C,4,4,116,724940,37.62,-122.40
06077,California,San Joaquin County,37.93,-121.30,715597,6,3,B,4,4,116,724920,37.90,-121.23
06079,California,San Luis Obispo County,35.34,-120.67,279083,7,3,C,4,4,116,723925,34.43,-119.85
06081,California,San Mateo County,37.56,-122.34,758581,7,3,C,4,4,116,724940,37.62,-122.40
06083,California,Santa Barbara County,34.64,-120.09,440668,7,3,C,4,4,116,723925,34.43,-119.85
06085,California,Santa Clara County,37.32,-121.91,1894605,7,3,C,4,4,116,724945,37.37,-121.93
06087,California,Santa Cruz County,36.99,-121.94,271804,7,3,C,4,4,116,724945,37.37,-121.93
06089,California,Shasta County,40.58,-122.30,179804,6,3,B,4,3,116,724920,37.90,-121.23
06091,California,Sierra County,39.61,-120.41,3003,12,5,B,4,3,138,725830,40.90,-117.80
06093,California,Siskiyou County,41.58,-122.49,43628,12,5,B,4,4,118,725830,40.90,-117.80
06095,California,Solano County,38.24,-122.07,431131,6,3,B,4,4,116,724920,37.90,-121.23
06097,California,Sonoma County,38.41,-122.72,500292,7,3,C,4,4,116,724940,37.62,-122.40
06099,California,Stanislaus County,37.62,-120.96,531997,6,3,B,4,4,132,724920,37.90,-121.23
06101,California,Sutter County,39.14,-121.64,95847,6,3,B,4,3,116,724920,37.90,-121.23
06103,California,Tehama County,40.12,-122.22,63067,6,3,B,4,3,116,724920,37.90,-121.23
06105,California,Trinity County,40.68,-123.07,13170,9,4,B,4,4,116,725846,39.32,-120.13
06107,California,Tulare County,36.25,-119.23,458198,6,3,B,4,4,195,722880,34.20,-118.35
06109,California,Tuolumne County,37.97,-120.33,53831,9,4,B,4,4,116,725846,39.32,-120.13
06111,California,Ventura County,34.24,-119.03,846178,7,3,C,4,4,195,723925,34.43,-119.85
06113,California,Yolo County,38.60,-121.72,207590,6,3,B,4,3,116,724920,37.90,-121.23
06115,California,Yuba County,39.14,-121.51,73966,6,3,B,4,3,116,724920,37.90,-121.23
08001,Colorado,Adams County,39.87,-104.93,480718,12,5,B,4,1,124,724666,39.74,-105.18
08003,Colorado,Alamosa County,37.48,-105.88,16177,14,6,B,4,1,124,725640,41.15,-104.80
08005,Colorado,Arapahoe County,39.65,-104.85,618821,12,5,B,4,1,124,724666,39.74,-105.18
08007,Colorado,Archuleta County,37.24,-107.09,12244,14,6,B,4,1,161,725640,41.15,-104.80
08009,Colorado,Baca County,37.37,-102.53,3645,9,4,B,4,2,161,723650,35.04,-106.62
08011,Colorado,Bent County,38.07,-103.16,5630,12,5,B,4,2,161,724666,39.74,-105.18
08013,Colorado,Boulder County,40.06,-105.18,313333,12,5,B,4,1,124,724666,39.74,-105.18
08014,Colorado,Broomfield County,39.94,-105.06,62138,12,5,B,4,1,124,724666,39.74,-105.18
08015,Colorado,Chaffee County,38.68,-106.08,18363,14,6,B,4,2,124,725640,41.15,-104.80
08017,Colorado,Cheyenne County,38.82,-102.46,1871,12,5,B,4,2,161,724666,39.74,-105.18
08019,Colorado,Clear Creek County,39.71,-105.53,9187,16,7,B,4,1,124,724676,39.22,-106.87
08021,Colorado,Conejos County,37.20,-105.99,8265,14,6,B,4,1,124,725640,41.15,-104.80
08023,Colorado,Costilla County,37.28,-105.45,3568,14,6,B,4,1,124,725640,41.15,-104.80
08025,Colorado,Crowley County,38.19,-103.86,5360,12,5,B,4,2,,724666,39.74,-105.18
08027,Colorado,Custer County,38.13,-105.38,4361,14,6,B,4,2,,725640,41.15,-104.80
08029,Colorado,Delta County,38.80,-107.91,29870,12,5,B,4,1,161,724666,39.74,-105.18
08031,Colorado,Denver County,39.72,-104.96,663862,12,5,B,4,1,124,724666,39.74,-105.18
08033,Colorado,Dolores County,37.74,-108.76,1978,14,6,B,4,1,161,725640,41.15,-104.80
08035,Colorado,Douglas County,39.49,-104.88,314638,12,5,B,4,1,124,724666,39.74,-105.18
08037,Colorado,Eagle County,39.60,-106.72,52921,14,6,B,4,1,124,725640,41.15,-104.80
08039,Colorado,Elbert County,39.38,-104.52,24195,12,5,B,4,1,124,724666,39.74,-105.18
08041,Colorado,El Paso County,38.87,-104.76,663519,12,5,B,4,2,161,724666,39.74,-105.18
08043,Colorado,Fremont County,38.43,-105.21,46502,12,5,B,4,2,,724666,39.74,-105.18
08045,Colorado,Garfield County,39.51,-107.54,57461,12,5,B,4,1,124,724666,39.74,-105.18
08047,Colorado,Gilpin County,39.86,-105.48,5851,12,5,B,4,1,124,724666,39.74,-105.18
08049,Colorado,Grand County,40.05,-105.98,14546,16,7,B,4,1,161,725715,40.48,-107.22
08051,Colorado,Gunnison County,38.66,-106.94,15725,16,7,B,4,1,161,724677,38.53,-106.93
08053,Colorado,Hinsdale County,38.00,-107.30,786,16,7,B,4,1,161,724677,38.53,-106.93
08055,Colorado,Huerfano County,37.62,-104.88,6462,12,5,B,4,2,161,724666,39.74,-105.18
08057,Colorado,Jackson County,40.69,-106.29,1396,16,7,B,4,1,161,725715,40.48,-107.22
08059,Colorado,Jefferson County,39.72,-105.13,558503,12,5,B,4,1,124,724666,39.74,-105.18
08061,Colorado,Kiowa County,38.47,-102.68,1402,12,5,B,4,2,161,724666,39.74,-105.18
08063,Colorado,Kit Carson County,39.31,-102.44,8072,12,5,B,4,2,161,724666,39.74,-105.18
08065,Colorado,Lake County,39.25,-106.31,7357,16,7,B,4,2,124,724676,39.22,-106.87
08067,Colorado,La Plata County,37.27,-107.81,53989,12,5,B,4,1,161,724666,39.74,-105.18
08069,Colorado,Larimer County,40.50,-105.10,324122,12,5,B,4,1,161,724666,39.74,-105.18
08071,Colorado,Las Animas County,37.20,-104.50,14052,9,4,B,4,2,161,723650,35.04,-106.62
08073,Colorado,Lincoln County,39.17,-103.61,5510,12,5,B,4,2,161,724666,39.74,-105.18
08075,Colorado,Logan County,40.64,-103.19,22524,12,5,B,4,1,124,724666,39.74,-105.18
08077,Colorado,Mesa County,39.09,-108.54,148255,12,5,B,4,1,124,724666,39.74,-105.18
08079,Colorado,Mineral County,37.80,-106.94,698,16,7,B,4,1,161,724677,38.53,-106.93
08081,Colorado,Moffat County,40.52,-107.63,12928,14,6,B,4,1,124,725640,41.15,-104.80
08083,Colorado,Montezuma County,37.37,-108.56,25772,12,5,B,4,1,161,724666,39.74,-105.18
08085,Colorado,Montrose County,38.48,-107.93,40873,12,5,B,4,1,161,724666,39.74,-105.18
08087,Colorado,Morgan County,40.26,-103.78,28328,12,5,B,4,1,124,724666,39.74,-105.18
08089,Colorado,Otero County,38.02,-103.66,18488,9,4,B,4,2,,723650,35.04,-106.62
08091,Colorado,Ouray County,38.14,-107.75,4629,14,6,B,4,1,161,725640,41.15,-104.80
08093,Colorado,Park County,39.31,-105.62,16345,16,7,B,4,1,124,724676,39.22,-106.87
08095,Colorado,Phillips County,40.60,-102.39,4363,12,5,B,4,2,161,724666,39.74,-105.18
08097,Colorado,Pitkin County,39.23,-106.91,17626,16,7,B,4,1,124,724676,39.22,-106.87
08099,Colorado,Prowers County,38.08,-102.55,12034,12,5,B,4,2,161,724666,39.74,-105.18
08101,Colorado,Pueblo County,38.26,-104.65,161875,12,5,B,4,2,,724666,39.74,-105.18
08103,Colorado,Rio Blanco County,40.05,-108.28,6707,14,6,B,4,1,124,725640,41.15,-104.80
08105,Colorado,Rio Grande County,37.62,-106.24,11607,16,7,B,4,1,124,724677,38.53,-106.93
08107,Colorado,Routt County,40.45,-106.90,23865,16,7,B,4,1,124,725715,40.48,-107.22
08109,Colorado,Saguache County,37.92,-106.02,6196,14,6,B,4,1,124,725640,41.15,-104.80
08111,Colorado,San Juan County,37.80,-107.67,720,16,7,B,4,1,161,724677,38.53,-106.93
08113,Colorado,San Miguel County,37.97,-107.96,7840,14,6,B,4,1,161,725640,41.15,-104.80
08115,Colorado,Sedgwick County,40.96,-102.33,2348,12,5,B,4,1,161,724666,39.74,-105.18
08117,Colorado,Summit County,39.57,-106.05,29404,16,7,B,4,1,124,724676,39.22,-106.87
08119,Colorado,Teller County,38.94,-105.14,23389,12,5,B,4,2,124,724666,39.74,-105.18
08121,Colorado,Washington County,40.09,-103.16,4780,12,5,B,4,2,161,724666,39.74,-105.18
08123,Colorado,Weld County,40.33,-104.79,277670,12,5,B,4,1,124,724666,39.74,-105.18
08125,Colorado,Yuma County,40.07,-102.49,10202,12,5,B,4,2,161,724666,39.74,-105.18
09001,Connecticut,Fairfield County,41.21,-73.36,945438,11,5,A,1,2,,725090,42.37,-71.02
09003,Connecticut,Hartford County,41.76,-72.72,897985,11,5,A,1,2,,725090,42.37,-71.02
09005,Connecticut,Litchfield County,41.73,-73.19,184993,11,5,A,1,2,,725090,42.37,-71.02
09007,Connecticut,Middlesex County,41.48,-72.57,164943,11,5,A,1,2,,725090,42.37,-71.02
09009,Connecticut,New Haven County,41.40,-72.94,861277,11,5,A,1,2,,725090,42.37,-71.02
09011,Connecticut,New London County,41.44,-72.10,273676,11,5,A,1,2,,725090,42.37,-71.02
09013,Connecticut,Tolland County,41.84,-72.37,151367,11,5,A,1,2,,725090,42.37,-71.02
09015,Connecticut,Windham County,41.80,-72.00,116998,11,5,A,1,2,,725090,42.37,-71.02
10001,Delaware,Kent County,39.12,-75.56,171987,8,4,A,1,3,,724010,37.52,-77.32
10003,Delaware,New Castle County,39.69,-75.63,552778,8,4,A,1,3,,744860,40.65,-73.80
10005,Delaware,Sussex County,38.66,-75.35,210849,8,4,A,1,3,,724010,37.52,-77.32
12001,Florida,Alachua County,29.67,-82.39,256380,3,2,A,3,5,,722119,27.98,-82.02
12003,Florida,Baker County,30.29,-82.19,27093,3,2,A,3,5,,722119,27.98,-82.02
12005,Florida,Bay County,30.21,-85.66,178985,3,2,A,3,5,,722119,27.98,-82.02
12007,Florida,Bradford County,29.95,-82.13,26702,3,2,A,3,5,,722119,27.98,-82.02
12009,Florida,Brevard County,28.23,-80.69,556885,3,2,A,3,5,,722119,27.98,-82.02
12011,Florida,Broward County,26.13,-80.23,1869235,1,1,A,3,5,,722024,25.90,-80.28
12013,Florida,Calhoun County,30.46,-85.12,14532,3,2,A,3,5,,722119,27.98,-82.02
12015,Florida,Charlotte County,26.95,-82.12,168474,3,2,A,3,5,,722119,27.98,-82.02
12017,Florida,Citrus County,28.86,-82.45,139377,3,2,A,3,5,,722119,27.98,-82.02
12019,Florida,Clay County,30.08,-81.80,199798,3,2,A,3,5,,722119,27.98,-82.02
12021,Florida,Collier County,26.20,-81.70,348777,3,2,A,3,5,,722030,26.68,-80.10
12023,Florida,Columbia County,30.13,-82.66,67857,3,2,A,3,5,,722119,27.98,-82.02
12027,Florida,DeSoto County,27.19,-81.86,35012,3,2,A,3,5,,722119,27.98,-82.02
12029,Florida,Dixie County,29.63,-83.06,15907,3,2,A,3,5,,722119,27.98,-82.02
12031,Florida,Duval County,30.30,-81.62,897698,3,2,A,3,5,,722119,27.98,-82.02
12033,Florida,Escambia County,30.49,-87.27,310659,3,2,A,3,5,,722119,27.98,-82.02
12035,Florida,Flagler County,29.52,-81.22,102408,3,2,A,3,5,,722119,27.98,-82.02
12037,Florida,Franklin County,29.79,-84.82,11815,3,2,A,3,5,,722119,27.98,-82.02
12039,Florida,Gadsden County,30.60,-84.58,46281,3,2,A,3,5,,722119,27.98,-82.02
12041,Florida,Gilchrist County,29.70,-82.81,16997,3,2,A,3,5,,722119,27.98,-82.02
12043,Florida,Glades County,26.90,-81.19,13635,3,2,A,3,5,,722030,26.68,-80.10
12045,Florida,Gulf County,29.99,-85.26,15944,3,2,A,3,5,,722119,27.98,-82.02
12047,Florida,Hamilton County,30.50,-83.00,14048,3,2,A,3,5,,722119,27.98,-82.02
12049,Florida,Hardee County,27.55,-81.82,27469,3,2,A,3,5,,722119,27.98,-82.02
12051,Florida,Hendry County,26.71,-81.20,38505,3,2,A,3,5,,722030,26.68,-80.10
12053,Florida,Hernando County,28.50,-82.50,175855,3,2,A,3,5,,722119,27.98,-82.02
12055,Florida,Highlands County,27.46,-81.44,98236,3,2,A,3,5,,722119,27.98,-82.02
12057,Florida,Hillsborough County,27.98,-82.40,1316298,3,2,A,3,5,,722119,27.98,-82.02
12059,Florida,Holmes County,30.85,-85.76,19650,3,2,A,3,5,,722119,27.98,-82.02
12061,Florida,Indian River County,27.67,-80.44,144755,3,2,A,3,5,,722030,26.68,-80.10
12063,Florida,Jackson County,30.80,-85.22,48801,3,2,A,3,5,,722119,27.98,-82.02
12065,Florida,Jefferson County,30.50,-83.89,14050,3,2,A,3,5,,722119,27.98,-82.02
12067,Florida,Lafayette County,30.07,-83.18,8835,3,2,A,3,5,,722119,27.98,-82.02
12069,Florida,Lake County,28.74,-81.75,315690,3,2,A,3,5,,722119,27.98,-82.02
12071,Florida,Lee County,26.57,-81.86,679513,3,2,A,3,5,,722119,27.98,-82.02
12073,Florida,Leon County,30.47,-84.27,283988,3,2,A,3,5,,722119,27.98,-82.02
12075,Florida,Levy County,29.38,-82.67,39613,3,2,A,3,5,,722119,27.98,-82.02
12077,Florida,Liberty County,30.40,-84.91,8360,3,2,A,3,5,,722119,27.98,-82.02
12079,Florida,Madison County,30.47,-83.43,18518,3,2,A,3,5,,722119,27.98,-82.02
12081,Florida,Manatee County,27.48,-82.53,351746,3,2,A,3,5,,722119,27.98,-82.02
12083,Florida,Marion County,29.14,-82.12,339167,3,2,A,3,5,,722119,27.98,-82.02
12085,Florida,Martin County,27.14,-80.24,153392,3,2,A,3,5,,722030,26.68,-80.10
12086,Florida,Miami-Dade County,25.77,-80.30,2662874,1,1,A,3,5,,722029,25.65,-80.43
12087,Florida,Monroe County,24.74,-81.26,77136,1,1,A,3,5,,722029,25.65,-80.43
12089,Florida,Nassau County,30.61,-81.65,76619,3,2,A,3,5,,722119,27.98,-82.02
12091,Florida,Okaloosa County,30.54,-86.57,196512,3,2,A,3,5,,722119,27.98,-82.02
12093,Florida,Okeechobee County,27.27,-80.82,39149,3,2,A,3,5,,722030,26.68,-80.10
12095,Florida,Orange County,28.53,-81.38,1253001,3,2,A,3,5,,722119,27.98,-82.02
12097,Florida,Osceola County,28.27,-81.38,310211,3,2,A,3,5,,722119,27.98,-82.02
12099,Florida,Palm Beach County,26.62,-80.15,1397710,3,2,A,3,5,,722030,26.68,-80.10
12101,Florida,Pasco County,28.26,-82.52,485331,3,2,A,3,5,,722119,27.98,-82.02
12103,Florida,Pinellas County,27.90,-82.73,938098,3,2,A,3,5,,722119,27.98,-82.02
12105,Florida,Polk County,28.03,-81.80,634638,3,2,A,3,5,,722119,27.98,-82.02
12107,Florida,Putnam County,29.61,-81.72,72143,3,2,A,3,5,,722119,27.98,-82.02
12109,Florida,St. Johns County,29.98,-81.42,217919,3,2,A,3,5,,722119,27.98,-82.02
12111,Florida,St. Lucie County,27.34,-80.35,291028,3,2,A,3,5,,722030,26.68,-80.10
12113,Florida,Santa Rosa County,30.55,-87.04,163422,3,2,A,3,5,,722119,27.98,-82.02
12115,Florida,Sarasota County,27.21,-82.42,396962,3,2,A,3,5,,722119,27.98,-82.02
12117,Florida,Seminole County,28.70,-81.31,442516,3,2,A,3,5,,722119,27.98,-82.02
12119,Florida,Sumter County,28.83,-82.04,114350,3,2,A,3,5,,722119,27.98,-82.02
12121,Florida,Suwannee County,30.21,-82.99,44022,3,2,A,3,5,,722119,27.98,-82.02
12123,Florida,Taylor County,30.06,-83.60,22582,3,2,A,3,5,,722119,27.98,-82.02
12125,Florida,Union County,30.01,-82.36,15190,3,2,A,3,5,,722119,27.98,-82.02
12127,Florida,Volusia County,29.07,-81.12,507531,3,2,A,3,5,,722119,27.98,-82.02
12129,Florida,Wakulla County,30.19,-84.33,31432,3,2,A,3,5,,722119,27.98,-82.02
12131,Florida,Walton County,30.58,-86.19,61530,3,2,A,3,5,,722119,27.98,-82.02
12133,Florida,Washington County,30.65,-85.63,24451,3,2,A,3,5,,722119,27.98,-82.02
13001,Georgia,Appling County,31.77,-82.34,18540,3,2,A,3,5,,722119,27.98,-82.02
13003,Georgia,Atkinson County,31.32,-82.89,8223,3,2,A,3,5,,722119,27.98,-82.02
13005,Georgia,Bacon County,31.55,-82.47,11281,3,2,A,3,5,,722119,27.98,-82.02
13007,Georgia,Baker County,31.31,-84.44,3255,3,2,A,3,5,,722119,27.98,-82.02
13009,Georgia,Baldwin County,33.08,-83.25,45909,5,3,A,3,4,,722195,33.77,-84.52
13011,Georgia,Banks County,34.35,-83.51,18295,8,4,A,3,4,,724230,38.18,-85.73
13013,Georgia,Barrow County,33.99,-83.73,73240,5,3,A,3,4,,722195,33.77,-84.52
13015,Georgia,Bartow County,34.21,-84.83,101736,5,3,A,3,4,,722195,33.77,-84.52
13017,Georgia,Ben Hill County,31.73,-83.25,17464,5,3,A,3,5,,722195,33.77,-84.52
13019,Georgia,Berrien County,31.24,-83.25,18700,3,2,A,3,5,,722119,27.98,-82.02
13021,Georgia,Bibb County,32.83,-83.69,153905,5,3,A,3,4,,722195,33.77,-84.52
13023,Georgia,Bleckley County,32.40,-83.33,12795,5,3,A,3,4,,722195,33.77,-84.52
13025,Georgia,Brantley County,31.22,-81.97,18417,3,2,A,3,5,,722119,27.98,-82.02
13027,Georgia,Brooks County,30.84,-83.54,15418,3,2,A,3,5,,722119,27.98,-82.02
13029,Georgia,Bryan County,31.98,-81.38,33906,3,2,A,3,5,,722119,27.98,-82.02
13031,Georgia,Bulloch County,32.42,-81.76,72087,5,3,A,3,5,,723140,35.22,-80.95
13033,Georgia,Burke County,33.10,-82.00,22709,5,3,A,3,5,,723140,35.22,-80.95
13035,Georgia,Butts County,33.30,-83.97,23368,5,3,A,3,4,,722195,33.77,-84.52
13037,Georgia,Calhoun County,31.53,-84.67,6463,5,3,A,3,5,,722195,33.77,-84.52
13039,Georgia,Camden County,30.81,-81.64,52027,3,2,A,3,5,,722119,27.98,-82.02
13043,Georgia,Candler County,32.40,-82.06,10888,5,3,A,3,5,,722195,33.77,-84.52
13045,Georgia,Carroll County,33.62,-85.04,114093,5,3,A,3,4,,722195,33.77,-84.52
13047,Georgia,Catoosa County,34.93,-85.17,65621,8,4,A,3,4,,724230,38.18,-85.73
13049,Georgia,Charlton County,30.78,-82.02,12897,3,2,A,3,5,,722119,27.98,-82.02
13051,Georgia,Chatham County,32.04,-81.13,283379,3,2,A,3,5,,722119,27.98,-82.02
13053,Georgia,Chattahoochee County,32.34,-84.90,11837,5,3,A,3,4,,722195,33.77,-84.52
13055,Georgia,Chattooga County,34.50,-85.34,24939,8,4,A,3,4,,724230,38.18,-85.73
13057,Georgia,Cherokee County,34.17,-84.50,230985,5,3,A,3,4,,722195,33.77,-84.52
13059,Georgia,Clarke County,33.95,-83.38,120938,5,3,A,3,4,,722195,33.77,-84.52
13061,Georgia,Clay County,31.63,-85.01,3102,5,3,A,3,5,,722195,33.77,-84.52
13063,Georgia,Clayton County,33.55,-84.36,267542,5,3,A,3,4,,722195,33.77,-84.52
13065,Georgia,Clinch County,31.02,-82.74,6831,3,2,A,3,5,,722119,27.98,-82.02
13067,Georgia,Cobb County,33.94,-84.56,730981,5,3,A,3,4,,722195,33.77,-84.52
13069,Georgia,Coffee County,31.52,-82.84,42811,5,3,A,3,5,,722195,33.77,-84.52
13071,Georgia,Colquitt County,31.18,-83.77,46102,3,2,A,3,5,,722119,27.98,-82.02
13073,Georgia,Columbia County,33.52,-82.17,139257,5,3,A,3,5,,722195,33.77,-84.52
13075,Georgia,Cook County,31.15,-83.42,17214,3,2,A,3,5,,722119,27.98,-82.02
13077,Georgia,Coweta County,33.38,-84.74,135571,5,3,A,3,4,,722195,33.77,-84.52
13079,Georgia,Crawford County,32.71,-83.93,12387,5,3,A,3,4,,722195,33.77,-84.52
13081,Georgia,Crisp County,31.95,-83.78,22934,5,3,A,3,5,,722195,33.77,-84.52
13083,Georgia,Dade County,34.88,-85.50,16389,8,4,A,3,4,,724230,38.18,-85.73
13085,Georgia,Dawson County,34.40,-84.10,22957,8,4,A,3,4,,724230,38.18,-85.73
13087,Georgia,Decatur County,30.89,-84.57,27220,3,2,A,3,5,,722119,27.98,-82.02
13089,Georgia,DeKalb County,33.79,-84.25,722161,5,3,A,3,4,,722195,33.77,-84.52
13091,Georgia,Dodge County,32.21,-83.18,20976,5,3,A,3,4,,722195,33.77,-84.52
13093,Georgia,Dooly County,32.17,-83.78,14188,5,3,A,3,4,,722195,33.77,-84.52
13095,Georgia,Dougherty County,31.57,-84.17,92407,5,3,A,3,5,,722195,33.77,-84.52
13097,Georgia,Douglas County,33.72,-84.73,138776,5,3,A,3,4,,722195,33.77,-84.52
13099,Georgia,Early County,31.33,-84.92,10491,5,3,A,3,5,,722195,33.77,-84.52
13101,Georgia,Echols County,30.71,-83.06,4003,3,2,A,3,5,,722119,27.98,-82.02
13103,Georgia,Effingham County,32.29,-81.30,55423,3,2,A,3,5,,722119,27.98,-82.02
13105,Georgia,Elbert County,34.13,-82.88,19438,5,3,A,3,4,,722195,33.77,-84.52
13107,Georgia,Emanuel County,32.59,-82.31,22755,5,3,A,3,5,,722195,33.77,-84.52
13109,Georgia,Evans County,32.17,-81.91,10898,3,2,A,3,5,,722119,27.98,-82.02
13111,Georgia,Fannin County,34.90,-84.31,23753,8,4,A,3,4,,724230,38.18,-85.73
13113,Georgia,Fayette County,33.43,-84.51,109664,5,3,A,3,4,,722195,33.77,-84.52
13115,Georgia,Floyd County,34.26,-85.18,96063,8,4,A,3,4,,724230,38.18,-85.73
13117,Georgia,Forsyth County,34.19,-84.14,204302,5,3,A,3,4,,722195,33.77,-84.52
13119,Georgia,Franklin County,34.38,-83.19,22264,8,4,A,3,4,,724230,38.18,-85.73
13121,Georgia,Fulton County,33.84,-84.39,996319,5,3,A,3,4,,722195,33.77,-84.52
13123,Georgia,Gilmer County,34.68,-84.48,28829,8,4,A,3,4,,724230,38.18,-85.73
13125,Georgia,Glascock County,33.24,-82.61,3053,5,3,A,3,4,,722195,33.77,-84.52
13127,Georgia,Glynn County,31.20,-81.49,82175,3,2,A,3,5,,722119,27.98,-82.02
13129,Georgia,Gordon County,34.50,-84.91,56047,8,4,A,3,4,,724230,38.18,-85.73
13131,Georgia,Grady County,30.88,-84.21,25359,3,2,A,3,5,,722119,27.98,-82.02
13133,Georgia,Greene County,33.55,-83.17,16490,5,3,A,3,4,,722195,33.77,-84.52
13135,Georgia,Gwinnett County,33.95,-84.06,877922,5,3,A,3,4,,722195,33.77,-84.52
13137,Georgia,Habersham County,34.57,-83.54,43752,8,4,A,3,4,,724230,38.18,-85.73
13139,Georgia,Hall County,34.28,-83.84,190761,8,4,A,3,4,,724230,38.18,-85.73
13141,Georgia,Hancock County,33.26,-83.00,8509,5,3,A,3,4,,722195,33.77,-84.52
13143,Georgia,Haralson County,33.76,-85.19,28641,5,3,A,3,4,,722195,33.77,-84.52
13145,Georgia,Harris County,32.70,-84.90,32876,5,3,A,3,4,,722195,33.77,-84.52
13147,Georgia,Hart County,34.36,-82.96,25377,5,3,A,3,4,,722195,33.77,-84.52
13149,Georgia,Heard County,33.31,-85.11,11603,5,3,A,3,4,,722195,33.77,-84.52
13151,Georgia,Henry County,33.48,-84.18,213869,5,3,A,3,4,,722195,33.77,-84.52
13153,Georgia,Houston County,32.57,-83.66,149111,5,3,A,3,4,,722195,33.77,-84.52
13155,Georgia,Irwin County,31.60,-83.28,9104,5,3,A,3,5,,722195,33.77,-84.52
13157,Georgia,Jackson County,34.13,-83.58,61870,5,3,A,3,4,,722195,33.77,-84.52
13159,Georgia,Jasper County,33.36,-83.72,13432,5,3,A,3,4,,722195,33.77,-84.52
13161,Georgia,Jeff Davis County,31.85,-82.60,14859,3,2,A,3,5,,722119,27.98,-82.02
13163,Georgia,Jefferson County,33.06,-82.41,16272,5,3,A,3,5,,722195,33.77,-84.52
13165,Georgia,Jenkins County,32.79,-81.95,9125,5,3,A,3,5,,723140,35.22,-80.95
13167,Georgia,Johnson County,32.70,-82.68,9701,5,3,A,3,4,,722195,33.77,-84.52
13169,Georgia,Jones County,32.96,-83.55,28787,5,3,A,3,4,,722195,33.77,-84.52
13171,Georgia,Lamar County,33.08,-84.15,18207,5,3,A,3,4,,722195,33.77,-84.52
13173,Georgia,Lanier County,31.04,-83.09,10373,3,2,A,3,5,,722119,27.98,-82.02
13175,Georgia,Laurens County,32.52,-82.93,47851,5,3,A,3,4,,722195,33.77,-84.52
13177,Georgia,Lee County,31.68,-84.17,29191,5,3,A,3,5,,722195,33.77,-84.52
13179,Georgia,Liberty County,31.83,-81.58,65198,3,2,A,3,5,,722119,27.98,-82.02
13181,Georgia,Lincoln County,33.78,-82.45,7622,5,3,A,3,4,,722195,33.77,-84.52
13183,Georgia,Long County,31.78,-81.73,17113,3,2,A,3,5,,722119,27.98,-82.02
13185,Georgia,Lowndes County,30.86,-83.28,113523,3,2,A,3,5,,722119,27.98,-82.02
13187,Georgia,Lumpkin County,34.52,-83.99,31176,8,4,A,3,4,,724230,38.18,-85.73
13189,Georgia,McDuffie County,33.46,-82.47,21370,5,3,A,3,5,,722195,33.77,-84.52
13191,Georgia,McIntosh County,31.48,-81.41,14214,3,2,A,3,5,,722119,27.98,-82.02
13193,Georgia,Macon County,32.33,-84.04,13792,5,3,A,3,4,,722195,33.77,-84.52
13195,Georgia,Madison County,34.10,-83.24,28312,5,3,A,3,4,,722195,33.77,-84.52
13197,Georgia,Marion County,32.38,-84.52,8797,5,3,A,3,4,,722195,33.77,-84.52
13199,Georgia,Meriwether County,33.01,-84.67,21198,5,3,A,3,4,,722195,33.77,-84.52
13201,Georgia,Miller County,31.16,-84.74,5958,3,2,A,3,5,,722119,27.98,-82.02
13205,Georgia,Mitchell County,31.22,-84.17,22771,3,2,A,3,5,,722119,27.98,-82.02
13207,Georgia,Monroe County,33.04,-83.91,27051,5,3,A,3,4,,722195,33.77,-84.52
13209,Georgia,Montgomery County,32.17,-82.53,8991,5,3,A,3,4,,722195,33.77,-84.52
13211,Georgia,Morgan County,33.60,-83.49,17956,5,3,A,3,4,,722195,33.77,-84.52
13213,Georgia,Murray County,34.78,-84.79,39410,8,4,A,3,4,,724230,38.18,-85.73
13215,Georgia,Muscogee County,32.49,-84.93,200887,5,3,A,3,4,,722195,33.77,-84.52
13217,Georgia,Newton County,33.57,-83.90,103675,5,3,A,3,4,,722195,33.77,-84.52
13219,Georgia,Oconee County,33.88,-83.46,35093,5,3,A,3,4,,722195,33.77,-84.52
13221,Georgia,Oglethorpe County,33.92,-83.14,14673,5,3,A,3,4,,722195,33.77,-84.52
13223,Georgia,Paulding County,33.91,-84.82,148987,5,3,A,3,4,,722195,33.77,-84.52
13225,Georgia,Peach County,32.58,-83.83,26922,5,3,A,3,4,,722195,33.77,-84.52
13227,Georgia,Pickens County,34.46,-84.44,29997,8,4,A,3,4,,724230,38.18,-85.73
13229,Georgia,Pierce County,31.31,-82.24,18991,3,2,A,3,5,,722119,27.98,-82.02
13231,Georgia,Pike County,33.10,-84.37,17784,5,3,A,3,4,,722195,33.77,-84.52
13233,Georgia,Polk County,34.01,-85.18,41133,5,3,A,3,4,,722195,33.77,-84.52
13235,Georgia,Pulaski County,32.28,-83.48,11483,5,3,A,3,4,,722195,33.77,-84.52
13237,Georgia,Putnam County,33.32,-83.34,21192,5,3,A,3,4,,722195,33.77,-84.52
13239,Georgia,Quitman County,31.86,-85.08,2315,5,3,A,3,5,,722195,33.77,-84.52
13241,Georgia,Rabun County,34.88,-83.41,16243,8,4,A,3,4,,724230,38.18,-85.73
13243,Georgia,Randolph County,31.76,-84.76,7313,5,3,A,3,5,,722195,33.77,-84.52
13245,Georgia,Richmond County,33.43,-82.05,201368,5,3,A,3,5,,722195,33.77,-84.52
13247,Georgia,Rockdale County,33.64,-84.02,87754,5,3,A,3,4,,722195,33.77,-84.52
13249,Georgia,Schley County,32.24,-84.31,5163,5,3,A,3,4,,722195,33.77,-84.52
13251,Georgia,Screven County,32.72,-81.63,14085,5,3,A,3,5,,723140,35.22,-80.95
13253,Georgia,Seminole County,30.97,-84.87,8686,3,2,A,3,5,,722119,27.98,-82.02
13255,Georgia,Spalding County,33.26,-84.27,63988,5,3,A,3,4,,722195,33.77,-84.52
13257,Georgia,Stephens County,34.56,-83.29,25480,8,4,A,3,4,,724230,38.18,-85.73
13259,Georgia,Stewart County,32.07,-84.76,5744,5,3,A,3,5,,722195,33.77,-84.52
13261,Georgia,Sumter County,32.06,-84.22,31232,5,3,A,3,4,,722195,33.77,-84.52
13263,Georgia,Talbot County,32.70,-84.58,6390,5,3,A,3,4,,722195,33.77,-84.52
13265,Georgia,Taliaferro County,33.57,-82.89,1693,5,3,A,3,4,,722195,33.77,-84.52
13267,Georgia,Tattnall County,32.04,-82.05,25224,3,2,A,3,5,,722119,27.98,-82.02
13269,Georgia,Taylor County,32.56,-84.22,8442,5,3,A,3,4,,722195,33.77,-84.52
13271,Georgia,Telfair County,32.02,-82.89,16518,5,3,A,3,4,,722195,33.77,-84.52
13273,Georgia,Terrell County,31.77,-84.43,9132,5,3,A,3,5,,722195,33.77,-84.52
13275,Georgia,Thomas County,30.87,-83.95,44959,3,2,A,3,5,,722119,27.98,-82.02
13277,Georgia,Tift County,31.45,-83.52,40704,5,3,A,3,5,,722195,33.77,-84.52
13279,Georgia,Toombs County,32.18,-82.37,27282,3,2,A,3,4,,722119,27.98,-82.02
13281,Georgia,Towns County,34.94,-83.78,11098,8,4,A,3,4,,724230,38.18,-85.73
13283,Georgia,Treutlen County,32.39,-82.59,6778,5,3,A,3,4,,722195,33.77,-84.52
13285,Georgia,Troup County,33.04,-85.03,69469,5,3,A,3,4,,722195,33.77,-84.52
13287,Georgia,Turner County,31.70,-83.64,8153,5,3,A,3,5,,722195,33.77,-84.52
13289,Georgia,Twiggs County,32.70,-83.42,8320,5,3,A,3,4,,722195,33.77,-84.52
13291,Georgia,Union County,34.87,-84.00,21984,8,4,A,3,4,,724230,38.18,-85.73
13293,Georgia,Upson County,32.91,-84.32,26256,5,3,A,3,4,,722195,33.77,-84.52
13295,Georgia,Walker County,34.84,-85.29,68218,8,4,A,3,4,,724230,38.18,-85.73
13297,Georgia,Walton County,33.80,-83.78,87615,5,3,A,3,4,,722195,33.77,-84.52
13299,Georgia,Ware County,31.23,-82.38,35515,3,2,A,3,5,,722119,27.98,-82.02
13301,Georgia,Warren County,33.41,-82.66,5520,5,3,A,3,4,,722195,33.77,-84.52
13303,Georgia,Washington County,32.96,-82.77,20635,5,3,A,3,4,,722195,33.77,-84.52
13305,Georgia,Wayne County,31.61,-81.92,29949,3,2,A,3,5,,722119,27.98,-82.02
13307,Georgia,Webster County,32.05,-84.56,2649,5,3,A,3,5,,722195,33.77,-84.52
13309,Georgia,Wheeler County,32.15,-82.75,7995,5,3,A,3,4,,722195,33.77,-84.52
13311,Georgia,White County,34.60,-83.74,27970,8,4,A,3,4,,724230,38.18,-85.73
13313,Georgia,Whitfield County,34.79,-84.97,103542,8,4,A,3,4,,724230,38.18,-85.73
13315,Georgia,Wilcox County,31.98,-83.41,8847,5,3,A,3,4,,722195,33.77,-84.52
13317,Georgia,Wilkes County,33.76,-82.75,9940,5,3,A,3,4,,722195,33.77,-84.52
13319,Georgia,Wilkinson County,32.84,-83.24,9326,5,3,A,3,4,,722195,33.77,-84.52
13321,Georgia,Worth County,31.54,-83.86,20940,5,3,A,3,5,,722195,33.77,-84.52
16001,Idaho,Ada County,43.61,-116.30,426236,12,5,B,4,2,72,725830,40.90,-117.80
16003,Idaho,Adams County,44.85,-116.38,3861,14,6,B,4,1,72,727730,46.92,-114.10
16005,Idaho,Bannock County,42.87,-112.42,83347,14,6,B,4,1,72,725785,43.52,-112.07
16007,Idaho,Bear Lake County,42.31,-111.34,5957,14,6,B,4,1,117,725785,43.52,-112.07
16009,Idaho,Benewah County,47.27,-116.64,9118,12,5,B,4,1,18,727845,46.27,-119.12
16011,Idaho,Bingham County,43.22,-112.36,45269,14,6,B,4,1,72,725785,43.52,-112.07
16013,Idaho,Blaine County,43.54,-114.29,21482,14,6,B,4,1,72,725785,43.52,-112.07
16015,Idaho,Boise County,43.90,-115.99,6824,14,6,B,4,1,72,725785,43.52,-112.07
16017,Idaho,Bonner County,48.24,-116.63,41585,14,6,B,4,1,18,727730,46.92,-114.10
16019,Idaho,Bonneville County,43.49,-112.00,108623,14,6,B,4,1,117,725785,43.52,-112.07
16021,Idaho,Boundary County,48.71,-116.30,10979,14,6,B,4,1,18,727730,46.92,-114.10
16023,Idaho,Butte County,43.70,-113.29,2622,14,6,B,4,1,117,725785,43.52,-112.07
16025,Idaho,Camas County,43.35,-114.76,1039,14,6,B,4,1,72,725785,43.52,-112.07
16027,Idaho,Canyon County,43.61,-116.63,203143,12,5,B,4,2,72,725830,40.90,-117.80
16029,Idaho,Caribou County,42.64,-111.66,6837,14,6,B,4,1,117,725785,43.52,-112.07
16031,Idaho,Cassia County,42.48,-113.74,23540,12,5,B,4,1,72,725755,41.12,-111.97
16033,Idaho,Clark County,44.19,-112.28,867,14,6,B,4,1,117,725785,43.52,-112.07
16035,Idaho,Clearwater County,46.49,-116.19,8562,12,5,B,4,1,18,727845,46.27,-119.12
16037,Idaho,Custer County,44.29,-114.05,4140,14,6,B,4,1,72,727730,46.92,-114.10
16039,Idaho,Elmore County,43.12,-115.68,26094,12,5,B,4,2,72,725830,40.90,-117.80
16041,Idaho,Franklin County,42.10,-111.87,13021,14,6,B,4,1,117,725785,43.52,-112.07
16043,Idaho,Fremont County,44.01,-111.62,12867,14,6,B,4,1,117,725785,43.52,-112.07
16045,Idaho,Gem County,43.88,-116.51,16866,12,5,B,4,2,72,725830,40.90,-117.80
16047,Idaho,Gooding County,42.85,-114.75,15064,12,5,B,4,2,72,725755,41.12,-111.97
16049,Idaho,Idaho County,45.97,-116.11,16215,12,5,B,4,1,18,727845,46.27,-119.12
16051,Idaho,Jefferson County,43.69,-111.97,27021,14,6,B,4,1,117,725785,43.52,-112.07
16053,Idaho,Jerome County,42.70,-114.46,22818,12,5,B,4,2,72,725755,41.12,-111.97
16055,Idaho,Kootenai County,47.74,-116.83,147326,12,5,B,4,1,18,727845,46.27,-119.12
16057,Idaho,Latah County,46.74,-116.93,38411,12,5,B,4,1,18,727845,46.27,-119.12
16059,Idaho,Lemhi County,45.13,-113.86,7726,14,6,B,4,1,72,727730,46.92,-114.10
16061,Idaho,Lewis County,46.24,-116.26,3838,12,5,B,4,2,18,727845,46.27,-119.12
16063,Idaho,Lincoln County,42.97,-114.33,5316,12,5,B,4,2,72,725755,41.12,-111.97
16065,Idaho,Madison County,43.82,-111.79,38038,14,6,B,4,1,117,725785,43.52,-112.07
16067,Idaho,Minidoka County,42.61,-113.71,20323,12,5,B,4,2,72,725755,41.12,-111.97
16069,Idaho,Nez Perce County,46.39,-116.95,40007,12,5,B,4,2,18,727845,46.27,-119.12
16071,Idaho,Oneida County,42.18,-112.30,4184,14,6,B,4,1,117,725785,43.52,-112.07
16073,Idaho,Owyhee County,43.38,-116.68,11353,12,5,B,4,1,72,725830,40.90,-117.80
16075,Idaho,Payette County,44.02,-116.89,22836,12,5,B,4,2,72,725830,40.90,-117.80
16077,Idaho,Power County,42.78,-112.83,7617,12,5,B,4,1,72,725755,41.12,-111.97
16079,Idaho,Shoshone County,47.51,-116.09,12390,12,5,B,4,1,18,727845,46.27,-119.12
16081,Idaho,Teton County,43.69,-111.13,10341,14,6,B,4,1,117,725785,43.52,-112.07
16083,Idaho,Twin Falls County,42.56,-114.50,80914,12,5,B,4,1,72,725755,41.12,-111.97
16085,Idaho,Valley County,44.76,-116.07,9826,14,6,B,4,1,72,727730,46.92,-114.10
16087,Idaho,Washington County,44.30,-116.92,10021,12,5,B,4,2,72,727845,46.27,-119.12
17001,Illinois,Adams County,39.94,-91.33,66988,11,5,A,2,2,,725300,41.98,-87.92
17003,Illinois,Alexander County,37.15,-89.29,7492,8,4,A,2,3,,724230,38.18,-85.73
17005,Illinois,Bond County,38.88,-89.43,17269,8,4,A,2,2,,724230,38.18,-85.73
17007,Illinois,Boone County,42.29,-88.85,53869,11,5,A,2,2,,725300,41.98,-87.92
17009,Illinois,Brown County,39.96,-90.75,6832,11,5,A,2,2,,725300,41.98,-87.92
17011,Illinois,Bureau County,41.38,-89.42,33840,11,5,A,2,2,,725300,41.98,-87.92
17013,Illinois,Calhoun County,39.12,-90.64,4956,11,5,A,2,2,,725300,41.98,-87.92
17015,Illinois,Carroll County,42.07,-89.96,14715,11,5,A,2,2,,725300,41.98,-87.92
17017,Illinois,Cass County,39.98,-90.32,13156,11,5,A,2,2,,725300,41.98,-87.92
17019,Illinois,Champaign County,40.13,-88.23,207133,11,5,A,2,2,,725300,41.98,-87.92
17021,Illinois,Christian County,39.53,-89.25,33892,8,4,A,2,2,,724230,38.18,-85.73
17023,Illinois,Clark County,39.35,-87.80,16180,11,5,A,2,3,,725300,41.98,-87.92
17025,Illinois,Clay County,38.72,-88.49,13520,8,4,A,2,3,,724230,38.18,-85.73
17027,Illinois,Clinton County,38.59,-89.47,37857,8,4,A,2,3,,724230,38.18,-85.73
17029,Illinois,Coles County,39.49,-88.26,53320,11,5,A,2,3,,725300,41.98,-87.92
17031,Illinois,Cook County,41.87,-87.76,5246456,11,5,A,2,2,,725300,41.98,-87.92
17033,Illinois,Crawford County,39.01,-87.75,19393,8,4,A,2,3,,724230,38.18,-85.73
17035,Illinois,Cumberland County,39.28,-88.28,10833,11,5,A,2,3,,725300,41.98,-87.92
17037,Illinois,DeKalb County,41.93,-88.73,105462,11,5,A,2,2,,725300,41.98,-87.92
17039,Illinois,De Witt County,40.17,-88.91,16284,11,5,A,2,2,,725300,41.98,-87.92
17041,Illinois,Douglas County,39.77,-88.28,19889,11,5,A,2,3,,725300,41.98,-87.92
17043,Illinois,DuPage County,41.85,-88.07,932708,11,5,A,2,2,,725300,41.98,-87.92
17045,Illinois,Edgar County,39.64,-87.72,17841,11,5,A,2,3,,725300,41.98,-87.92
17047,Illinois,Edwards County,38.40,-88.04,6617,8,4,A,2,3,,724230,38.18,-85.73
17049,Illinois,Effingham County,39.09,-88.58,34320,8,4,A,2,3,,724230,38.18,-85.73
17051,Illinois,Fayette County,39.00,-89.03,21870,8,4,A,2,3,,724230,38.18,-85.73
17053,Illinois,Ford County,40.53,-88.22,13688,11,5,A,2,2,,725300,41.98,-87.92
17055,Illinois,Franklin County,37.96,-88.95,39411,8,4,A,2,3,,724230,38.18,-85.73
17057,Illinois,Fulton County,40.52,-90.12,36007,11,5,A,2,2,,725300,41.98,-87.92
17059,Illinois,Gallatin County,37.77,-88.24,5291,8,4,A,2,3,,724230,38.18,-85.73
17061,Illinois,Greene County,39.37,-90.37,13434,11,5,A,2,2,,725300,41.98,-87.92
17063,Illinois,Grundy County,41.35,-88.35,50425,11,5,A,2,2,,725300,41.98,-87.92
17065,Illinois,Hamilton County,38.09,-88.56,8296,8,4,A,2,3,,724230,38.18,-85.73
17067,Illinois,Hancock County,40.43,-91.20,18564,11,5,A,2,2,,725300,41.98,-87.92
17069,Illinois,Hardin County,37.48,-88.29,4129,8,4,A,2,3,,724230,38.18,-85.73
17071,Illinois,Henderson County,40.83,-90.94,6916,11,5,A,2,2,,725300,41.98,-87.92
17073,Illinois,Henry County,41.35,-90.13,49635,11,5,A,2,2,,725300,41.98,-87.92
17075,Illinois,Iroquois County,40.76,-87.83,28879,11,5,A,2,2,,725300,41.98,-87.92
17077,Illinois,Jackson County,37.75,-89.27,59677,8,4,A,2,3,,724230,38.18,-85.73
17079,Illinois,Jasper County,39.00,-88.16,9623,8,4,A,2,3,,724230,38.18,-85.73
17081,Illinois,Jefferson County,38.31,-88.91,38534,8,4,A,2,3,,724230,38.18,-85.73
17083,Illinois,Jersey County,39.07,-90.32,22571,11,5,A,2,2,,725300,41.98,-87.92
17085,Illinois,Jo Daviess County,42.41,-90.31,22254,11,5,A,2,2,,725300,41.98,-87.92
17087,Illinois,Johnson County,37.47,-88.88,12601,8,4,A,2,3,,724230,38.18,-85.73
17089,Illinois,Kane County,41.92,-88.33,527306,11,5,A,2,2,,725300,41.98,-87.92
17091,Illinois,Kankakee County,41.15,-87.85,111375,11,5,A,2,2,,725300,41.98,-87.92
17093,Illinois,Kendall County,41.66,-88.38,121350,11,5,A,2,2,,725300,41.98,-87.92
17095,Illinois,Knox County,40.94,-90.33,52069,11,5,A,2,2,,725300,41.98,-87.92
17097,Illinois,Lake County,42.31,-87.97,705186,11,5,A,2,2,,725300,41.98,-87.92
17099,Illinois,LaSalle County,41.35,-88.90,111241,11,5,A,2,2,,725300,41.98,-87.92
17101,Illinois,Lawrence County,38.72,-87.75,16519,8,4,A,2,3,,724230,38.18,-85.73
17103,Illinois,Lee County,41.81,-89.40,34735,11,5,A,2,2,,725300,41.98,-87.92
17105,Illinois,Livingston County,40.91,-88.57,37903,11,5,A,2,2,,725300,41.98,-87.92
17107,Illinois,Logan County,40.14,-89.36,29746,11,5,A,2,2,,725300,41.98,-87.92
17109,Illinois,McDonough County,40.47,-90.67,31880,11,5,A,2,2,,725300,41.98,-87.92
17111,Illinois,McHenry County,42.27,-88.35,307283,11,5,A,2,2,,725300,41.98,-87.92
17113,Illinois,McLean County,40.49,-88.95,174061,11,5,A,2,2,,725300,41.98,-87.92
17115,Illinois,Macon County,39.85,-88.95,108350,11,5,A,2,2,,725300,41.98,-87.92
17117,Illinois,Macoupin County,39.19,-89.88,46453,8,4,A,2,2,,724460,39.30,-94.72
17119,Illinois,Madison County,38.80,-90.02,266560,8,4,A,2,2,,724230,38.18,-85.73
17121,Illinois,Marion County,38.59,-89.02,38571,8,4,A,2,3,,724230,38.18,-85.73
17123,Illinois,Marshall County,41.04,-89.32,12014,11,5,A,2,2,,725300,41.98,-87.92
17125,Illinois,Mason County,40.29,-89.90,13898,11,5,A,2,2,,725300,41.98,-87.92
17127,Illinois,Massac County,37.18,-88.71,14905,8,4,A,2,3,,724230,38.18,-85.73
17129,Illinois,Menard County,40.00,-89.80,12570,11,5,A,2,2,,725300,41.98,-87.92
17131,Illinois,Mercer County,41.21,-90.69,15945,11,5,A,2,2,,725300,41.98,-87.92
17133,Illinois,Monroe County,38.36,-90.17,33722,8,4,A,2,3,,724230,38.18,-85.73
17135,Illinois,Montgomery County,39.20,-89.51,29359,8,4,A,2,2,,724230,38.18,-85.73
17137,Illinois,Morgan County,39.72,-90.23,34929,11,5,A,2,2,,725300,41.98,-87.92
17139,Illinois,Moultrie County,39.63,-88.61,14837,11,5,A,2,3,,725300,41.98,-87.92
17141,Illinois,Ogle County,42.03,-89.26,52085,11,5,A,2,2,,725300,41.98,-87.92
17143,Illinois,Peoria County,40.74,-89.64,187319,11,5,A,2,2,,725300,41.98,-87.92
17145,Illinois,Perry County,38.06,-89.32,21672,8,4,A,2,3,,724230,38.18,-85.73
17147,Illinois,Piatt County,40.01,-88.58,16431,11,5,A,2,2,,725300,41.98,-87.92
17149,Illinois,Pike County,39.62,-90.86,16022,11,5,A,2,2,,725300,41.98,-87.92
17151,Illinois,Pope County,37.40,-88.55,4276,8,4,A,2,3,,724230,38.18,-85.73
17153,Illinois,Pulaski County,37.20,-89.13,5815,8,4,A,2,3,,724230,38.18,-85.73
17155,Illinois,Putnam County,41.23,-89.27,5814,11,5,A,2,2,,725300,41.98,-87.92
17157,Illinois,Randolph County,38.06,-89.81,32869,8,4,A,2,3,,724230,38.18,-85.73
17159,Illinois,Richland County,38.73,-88.09,16061,8,4,A,2,3,,724230,38.18,-85.73
17161,Illinois,Rock Island County,41.49,-90.50,146063,11,5,A,2,2,,725300,41.98,-87.92
17163,Illinois,St. Clair County,38.55,-90.00,265729,8,4,A,2,3,,724230,38.18,-85.73
17165,Illinois,Saline County,37.75,-88.54,24612,8,4,A,2,3,,724230,38.18,-85.73
17167,Illinois,Sangamon County,39.77,-89.65,198997,11,5,A,2,2,,725300,41.98,-87.92
17169,Illinois,Schuyler County,40.13,-90.57,7330,11,5,A,2,2,,725300,41.98,-87.92
17171,Illinois,Scott County,39.65,-90.46,5204,11,5,A,2,2,,725300,41.98,-87.92
17173,Illinois,Shelby County,39.40,-88.80,22048,8,4,A,2,3,,724230,38.18,-85.73
17175,Illinois,Stark County,41.10,-89.79,5813,11,5,A,2,2,,725300,41.98,-87.92
17177,Illinois,Stephenson County,42.32,-89.64,46435,11,5,A,2,2,,725300,41.98,-87.92
17179,Illinois,Tazewell County,40.60,-89.53,135707,11,5,A,2,2,,725300,41.98,-87.92
17181,Illinois,Union County,37.47,-89.24,17447,8,4,A,2,3,,724230,38.18,-85.73
17183,Illinois,Vermilion County,40.15,-87.65,79728,11,5,A,2,2,,725300,41.98,-87.92
17185,Illinois,Wabash County,38.43,-87.79,11549,8,4,A,2,3,,724230,38.18,-85.73
17187,Illinois,Warren County,40.89,-90.64,17874,11,5,A,2,2,,725300,41.98,-87.92
17189,Illinois,Washington County,38.36,-89.39,14337,8,4,A,2,3,,724230,38.18,-85.73
17191,Illinois,Wayne County,38.41,-88.42,16543,8,4,A,2,3,,724230,38.18,-85.73
17193,Illinois,White County,38.09,-88.19,14374,8,4,A,2,3,,724230,38.18,-85.73
17195,Illinois,Whiteside County,41.78,-89.82,56876,11,5,A,2,2,,725300,41.98,-87.92
17197,Illinois,Will County,41.57,-88.06,685419,11,5,A,2,2,,725300,41.98,-87.92
17199,Illinois,Williamson County,37.76,-88.97,67008,8,4,A,2,3,,724230,38.18,-85.73
17201,Illinois,Winnebago County,42.31,-89.06,288542,11,5,A,2,2,,725300,41.98,-87.92
17203,Illinois,Woodford County,40.77,-89.29,39187,11,5,A,2,2,,725300,41.98,-87.92
18001,Indiana,Adams County,40.75,-84.93,34791,11,5,A,2,2,,725240,41.40,-81.85
18003,Indiana,Allen County,41.10,-85.12,365918,11,5,A,2,2,,725240,41.40,-81.85
18005,Indiana,Bartholomew County,39.22,-85.90,80217,11,5,A,2,2,,725300,41.98,-87.92
18007,Indiana,Benton County,40.58,-87.29,8700,11,5,A,2,2,,725300,41.98,-87.92
18009,Indiana,Blackford County,40.47,-85.34,12401,11,5,A,2,2,,725300,41.98,-87.92
18011,Indiana,Boone County,40.01,-86.40,61915,11,5,A,2,2,,725300,41.98,-87.92
18013,Indiana,Brown County,39.24,-86.21,14962,8,4,A,2,3,,724230,38.18,-85.73
18015,Indiana,Carroll County,40.58,-86.60,19923,11,5,A,2,2,,725300,41.98,-87.92
18017,Indiana,Cass County,40.75,-86.34,38438,11,5,A,2,2,,725300,41.98,-87.92
18019,Indiana,Clark County,38.37,-85.73,114262,8,4,A,2,3,,724230,38.18,-85.73
18021,Indiana,Clay County,39.47,-87.12,26562,11,5,A,2,2,,725300,41.98,-87.92
18023,Indiana,Clinton County,40.30,-86.51,32776,11,5,A,2,2,,725300,41.98,-87.92
18025,Indiana,Crawford County,38.31,-86.42,10655,8,4,A,2,3,,724230,38.18,-85.73
18027,Indiana,Daviess County,38.70,-87.10,32729,8,4,A,2,3,,724230,38.18,-85.73
18029,Indiana,Dearborn County,39.14,-84.92,49506,8,4,A,2,3,,724230,38.18,-85.73
18031,Indiana,Decatur County,39.32,-85.49,26524,11,5,A,2,2,,725300,41.98,-87.92
18033,Indiana,DeKalb County,41.38,-85.03,42383,11,5,A,2,2,,725240,41.40,-81.85
18035,Indiana,Delaware County,40.21,-85.40,117074,11,5,A,2,2,,725300,41.98,-87.92
18037,Indiana,Dubois County,38.36,-86.91,42345,8,4,A,2,3,,724230,38.18,-85.73
18039,Indiana,Elkhart County,41.64,-85.91,201971,11,5,A,2,2,,725300,41.98,-87.92
18041,Indiana,Fayette County,39.64,-85.15,23468,11,5,A,2,2,,725300,41.98,-87.92
18043,Indiana,Floyd County,38.32,-85.86,76179,8,4,A,2,3,,724230,38.18,-85.73
18045,Indiana,Fountain County,40.15,-87.27,16658,11,5,A,2,2,,725300,41.98,-87.92
18047,Indiana,Franklin County,39.40,-85.07,22934,11,5,A,2,2,,725240,41.40,-81.85
18049,Indiana,Fulton County,41.06,-86.22,20500,11,5,A,2,2,,725300,41.98,-87.92
18051,Indiana,Gibson County,38.31,-87.55,33759,8,4,A,2,3,,724230,38.18,-85.73
18053,Indiana,Grant County,40.53,-85.64,68569,11,5,A,2,2,,725300,41.98,-87.92
18055,Indiana,Greene County,39.05,-86.99,32726,8,4,A,2,3,,724230,38.18,-85.73
18057,Indiana,Hamilton County,40.00,-86.06,302623,11,5,A,2,2,,725300,41.98,-87.92
18059,Indiana,Hancock County,39.81,-85.82,71978,11,5,A,2,2,,725300,41.98,-87.92
18061,Indiana,Harrison County,38.23,-86.10,39299,8,4,A,2,3,,724230,38.18,-85.73
18063,Indiana,Hendricks County,39.77,-86.42,156056,11,5,A,2,2,,725300,41.98,-87.92
18065,Indiana,Henry County,39.93,-85.40,48995,11,5,A,2,2,,725300,41.98,-87.92
18067,Indiana,Howard County,40.47,-86.13,82982,11,5,A,2,2,,725300,41.98,-87.92
18069,Indiana,Huntington County,40.87,-85.49,36706,11,5,A,2,2,,725300,41.98,-87.92
18071,Indiana,Jackson County,38.93,-85.94,43705,8,4,A,2,3,,724230,38.18,-85.73
18073,Indiana,Jasper County,41.08,-87.15,33475,11,5,A,2,2,,725300,41.98,-87.92
18075,Indiana,Jay County,40.43,-85.03,21179,11,5,A,2,2,,725240,41.40,-81.85
18077,Indiana,Jefferson County,38.76,-85.43,32494,8,4,A,2,3,,724230,38.18,-85.73
18079,Indiana,Jennings County,39.01,-85.65,28000,8,4,A,2,3,,724230,38.18,-85.73
18081,Indiana,Johnson County,39.55,-86.11,147538,11,5,A,2,2,,725300,41.98,-87.92
18083,Indiana,Knox County,38.70,-87.46,37938,8,4,A,2,3,,724230,38.18,-85.73
18085,Indiana,Kosciusko County,41.27,-85.83,78564,11,5,A,2,2,,725300,41.98,-87.92
18087,Indiana,LaGrange County,41.63,-85.46,38436,11,5,A,2,2,,725300,41.98,-87.92
18089,Indiana,Lake County,41.53,-87.41,490228,11,5,A,2,2,,725300,41.98,-87.92
18091,Indiana,LaPorte County,41.63,-86.79,111444,11,5,A,2,2,,725300,41.98,-87.92
18093,Indiana,Lawrence County,38.85,-86.50,45704,8,4,A,2,3,,724230,38.18,-85.73
18095,Indiana,Madison County,40.11,-85.71,130069,11,5,A,2,2,,725300,41.98,-87.92
18097,Indiana,Marion County,39.79,-86.14,934243,11,5,A,2,2,,725300,41.98,-87.92
18099,Indiana,Marshall County,41.35,-86.27,47107,11,5,A,2,2,,725300,41.98,-87.92
18101,Indiana,Martin County,38.68,-86.85,10203,8,4,A,2,3,,724230,38.18,-85.73
18103,Indiana,Miami County,40.73,-86.07,35954,11,5,A,2,2,,725300,41.98,-87.92
18105,Indiana,Monroe County,39.16,-86.54,143339,8,4,A,2,3,,724230,38.18,-85.73
18107,Indiana,Montgomery County,40.04,-86.90,38146,11,5,A,2,2,,725300,41.98,-87.92
18109,Indiana,Morgan County,39.51,-86.40,69693,11,5,A,2,2,,725300,41.98,-87.92
18111,Indiana,Newton County,40.99,-87.38,14156,11,5,A,2,2,,725300,41.98,-87.92
18113,Indiana,Noble County,41.41,-85.39,47618,11,5,A,2,2,,725300,41.98,-87.92
18115,Indiana,Ohio County,38.95,-84.91,6035,8,4,A,2,3,,724230,38.18,-85.73
18117,Indiana,Orange County,38.56,-86.50,19626,8,4,A,2,3,,724230,38.18,-85.73
18119,Indiana,Owen County,39.32,-86.80,20969,11,5,A,2,2,,725300,41.98,-87.92
18121,Indiana,Parke County,39.76,-87.23,17233,11,5,A,2,2,,725300,41.98,-87.92
18123,Indiana,Perry County,38.01,-86.71,19454,8,4,A,2,3,,724230,38.18,-85.73
18125,Indiana,Pike County,38.42,-87.23,12624,8,4,A,2,3,,724230,38.18,-85.73
18127,Indiana,Porter County,41.51,-87.11,167076,11,5,A,2,2,,725300,41.98,-87.92
18129,Indiana,Posey County,38.01,-87.82,25540,8,4,A,2,3,,724230,38.18,-85.73
18131,Indiana,Pulaski County,41.05,-86.69,12967,11,5,A,2,2,,725300,41.98,-87.92
18133,Indiana,Putnam County,39.65,-86.84,37618,11,5,A,2,2,,725300,41.98,-87.92
18135,Indiana,Randolph County,40.17,-85.00,25384,11,5,A,2,2,,725240,41.40,-81.85
18137,Indiana,Ripley County,39.16,-85.22,28497,8,4,A,2,3,,724230,38.18,-85.73
18139,Indiana,Rush County,39.62,-85.47,16892,11,5,A,2,2,,725300,41.98,-87.92
18141,Indiana,St. Joseph County,41.68,-86.23,267618,11,5,A,2,2,,725300,41.98,-87.92
18143,Indiana,Scott County,38.70,-85.76,23712,8,4,A,2,3,,724230,38.18,-85.73
18145,Indiana,Shelby County,39.54,-85.79,44579,11,5,A,2,2,,725300,41.98,-87.92
18147,Indiana,Spencer County,38.02,-87.01,20801,8,4,A,2,3,,724230,38.18,-85.73
18149,Indiana,Starke County,41.28,-86.63,23074,11,5,A,2,2,,725300,41.98,-87.92
18151,Indiana,Steuben County,41.65,-85.01,34308,11,5,A,2,2,,725300,41.98,-87.92
18153,Indiana,Sullivan County,39.10,-87.39,21050,8,4,A,2,3,,724230,38.18,-85.73
18155,Indiana,Switzerland County,38.82,-85.02,10452,8,4,A,2,3,,724230,38.18,-85.73
18157,Indiana,Tippecanoe County,40.42,-86.89,183074,11,5,A,2,2,,725300,41.98,-87.92
18159,Indiana,Tipton County,40.31,-86.05,15415,11,5,A,2,2,,725300,41.98,-87.92
18161,Indiana,Union County,39.62,-84.92,7246,11,5,A,2,2,,725240,41.40,-81.85
18163,Indiana,Vanderburgh County,38.00,-87.55,182006,8,4,A,2,3,,724230,38.18,-85.73
18165,Indiana,Vermillion County,39.76,-87.44,15693,11,5,A,2,2,,725300,41.98,-87.92
18167,Indiana,Vigo County,39.46,-87.39,108175,11,5,A,2,2,,725300,41.98,-87.92
18169,Indiana,Wabash County,40.86,-85.80,32252,11,5,A,2,2,,725300,41.98,-87.92
18171,Indiana,Warren County,40.31,-87.33,8352,11,5,A,2,2,,725300,41.98,-87.92
18173,Indiana,Warrick County,38.01,-87.35,61149,8,4,A,2,3,,724230,38.18,-85.73
18175,Indiana,Washington County,38.57,-86.09,27878,8,4,A,2,3,,724230,38.18,-85.73
18177,Indiana,Wayne County,39.84,-84.95,67671,11,5,A,2,2,,725240,41.40,-81.85
18179,Indiana,Wells County,40.77,-85.19,27862,11,5,A,2,2,,725300,41.98,-87.92
18181,Indiana,White County,40.76,-86.81,24453,11,5,A,2,2,,725300,41.98,-87.92
18183,Indiana,Whitley County,41.16,-85.48,33403,11,5,A,2,2,,725300,41.98,-87.92
19001,Iowa,Adair County,41.34,-94.48,7454,11,5,A,2,2,,725500,41.32,-95.90
19003,Iowa,Adams County,41.01,-94.71,3875,11,5,A,2,2,,725500,41.32,-95.90
19005,Iowa,Allamakee County,43.26,-91.42,14038,13,6,A,2,1,,726580,44.88,-93.23
19007,Iowa,Appanoose County,40.74,-92.87,12661,11,5,A,2,2,,725500,41.32,-95.90
19009,Iowa,Audubon County,41.68,-94.93,5794,11,5,A,2,1,,725500,41.32,-95.90
19011,Iowa,Benton County,42.06,-92.02,25680,11,5,A,2,2,,725300,41.98,-87.92
19013,Iowa,Black Hawk County,42.49,-92.37,132897,13,6,A,2,1,,726580,44.88,-93.23
19015,Iowa,Boone County,42.03,-93.90,26433,11,5,A,2,1,,725500,41.32,-95.90
19017,Iowa,Bremer County,42.74,-92.38,24721,13,6,A,2,1,,726580,44.88,-93.23
19019,Iowa,Buchanan County,42.49,-91.90,21038,13,6,A,2,1,,726580,44.88,-93.23
19021,Iowa,Buena Vista County,42.68,-95.18,20578,13,6,A,2,1,,726580,44.88,-93.23
19023,Iowa,Butler County,42.71,-92.76,15006,13,6,A,2,1,,726580,44.88,-93.23
19025,Iowa,Calhoun County,42.40,-94.63,9866,13,6,A,2,1,,726580,44.88,-93.23
19027,Iowa,Carroll County,42.04,-94.87,20562,11,5,A,2,1,,725500,41.32,-95.90
19029,Iowa,Cass County,41.37,-94.98,13448,11,5,A,2,2,,725500,41.32,-95.90
19031,Iowa,Cedar County,41.76,-91.14,18411,11,5,A,2,2,,725300,41.98,-87.92
19033,Iowa,Cerro Gordo County,43.14,-93.25,43254,13,6,A,2,1,,726580,44.88,-93.23
19035,Iowa,Cherokee County,42.75,-95.59,11836,13,6,A,2,1,,726580,44.88,-93.23
19037,Iowa,Chickasaw County,43.04,-92.34,12264,13,6,A,2,1,,726580,44.88,-93.23
19039,Iowa,Clarke County,41.04,-93.78,9217,11,5,A,2,2,,725500,41.32,-95.90
19041,Iowa,Clay County,43.13,-95.16,16515,13,6,A,2,1,,726580,44.88,-93.23
19043,Iowa,Clayton County,42.86,-91.32,17692,13,6,A,2,1,,726400,42.95,-87.90
19045,Iowa,Clinton County,41.85,-90.34,48051,11,5,A,2,2,,725300,41.98,-87.92
19047,Iowa,Crawford County,42.03,-95.36,17228,11,5,A,2,1,,725500,41.32,-95.90
19049,Iowa,Dallas County,41.65,-93.92,77400,11,5,A,2,1,,725500,41.32,-95.90
19051,Iowa,Davis County,40.77,-92.42,8781,11,5,A,2,2,,725500,41.32,-95.90
19053,Iowa,Decatur County,40.71,-93.82,8263,11,5,A,2,2,,725500,41.32,-95.90
19055,Iowa,Delaware County,42.48,-91.38,17398,13,6,A,2,1,,726400,42.95,-87.90
19057,Iowa,Des Moines County,40.83,-91.14,40255,11,5,A,2,2,,725300,41.98,-87.92
19059,Iowa,Dickinson County,43.39,-95.13,16935,13,6,A,2,1,,726580,44.88,-93.23
19061,Iowa,Dubuque County,42.49,-90.76,96370,11,5,A,2,1,,725300,41.98,-87.92
19063,Iowa,Emmet County,43.39,-94.75,9990,13,6,A,2,1,,726580,44.88,-93.23
19065,Iowa,Fayette County,42.82,-91.86,20343,13,6,A,2,1,,726580,44.88,-93.23
19067,Iowa,Floyd County,43.07,-92.75,16077,13,6,A,2,1,,726580,44.88,-93.23
19069,Iowa,Franklin County,42.76,-93.24,10436,13,6,A,2,1,,726580,44.88,-93.23
19071,Iowa,Fremont County,40.75,-95.62,7022,11,5,A,2,2,,725500,41.32,-95.90
19073,Iowa,Greene County,42.03,-94.38,9200,11,5,A,2,1,,725500,41.32,-95.90
19075,Iowa,Grundy County,42.38,-92.75,12375,13,6,A,2,1,,726580,44.88,-93.23
19077,Iowa,Guthrie County,41.67,-94.43,10722,11,5,A,2,1,,725500,41.32,-95.90
19079,Iowa,Hamilton County,42.41,-93.77,15117,13,6,A,2,1,,726580,44.88,-93.23
19081,Iowa,Hancock County,43.09,-93.71,11027,13,6,A,2,1,,726580,44.88,-93.23
19083,Iowa,Hardin County,42.44,-93.22,17311,13,6,A,2,1,,726580,44.88,-93.23
19085,Iowa,Harrison County,41.66,-95.81,14324,11,5,A,2,1,,725500,41.32,-95.90
19087,Iowa,Henry County,40.98,-91.54,20217,11,5,A,2,2,,725300,41.98,-87.92
19089,Iowa,Howard County,43.36,-92.23,9449,13,6,A,2,1,,726580,44.88,-93.23
19091,Iowa,Humboldt County,42.75,-94.22,9640,13,6,A,2,1,,726580,44.88,-93.23
19093,Iowa,Ida County,42.39,-95.50,7042,13,6,A,2,1,,726580,44.88,-93.23
19095,Iowa,Iowa County,41.70,-92.04,16375,11,5,A,2,2,,725500,41.32,-95.90
19097,Iowa,Jackson County,42.14,-90.57,19482,11,5,A,2,2,,725300,41.98,-87.92
19099,Iowa,Jasper County,41.68,-93.07,36872,11,5,A,2,1,,725500,41.32,-95.90
19101,Iowa,Jefferson County,41.01,-91.96,17325,11,5,A,2,2,,725500,41.32,-95.90
19103,Iowa,Johnson County,41.68,-91.56,142287,11,5,A,2,2,,725300,41.98,-87.92
19105,Iowa,Jones County,42.14,-91.20,20454,11,5,A,2,2,,725300,41.98,-87.92
19107,Iowa,Keokuk County,41.33,-92.17,10231,11,5,A,2,2,,725500,41.32,-95.90
19109,Iowa,Kossuth County,43.15,-94.22,15222,13,6,A,2,1,,726580,44.88,-93.23
19111,Iowa,Lee County,40.56,-91.40,35286,11,5,A,2,2,,725300,41.98,-87.92
19113,Iowa,Linn County,42.01,-91.65,217751,11,5,A,2,2,,725300,41.98,-87.92
19115,Iowa,Louisa County,41.23,-91.26,11161,11,5,A,2,2,,725300,41.98,-87.92
19117,Iowa,Lucas County,41.02,-93.31,8701,11,5,A,2,2,,725500,41.32,-95.90
19119,Iowa,Lyon County,43.39,-96.22,11683,13,6,A,2,1,,726580,44.88,-93.23
19121,Iowa,Madison County,41.35,-93.99,15609,11,5,A,2,2,,725500,41.32,-95.90
19123,Iowa,Mahaska County,41.31,-92.64,22370,11,5,A,2,2,,725500,41.32,-95.90
19125,Iowa,Marion County,41.35,-93.04,33365,11,5,A,2,2,,725500,41.32,-95.90
19127,Iowa,Marshall County,42.03,-92.94,40866,11,5,A,2,1,,725500,41.32,-95.90
19129,Iowa,Mills County,41.05,-95.70,14831,11,5,A,2,2,,725500,41.32,-95.90
19131,Iowa,Mitchell County,43.34,-92.80,10779,13,6,A,2,1,,726580,44.88,-93.23
19133,Iowa,Monona County,42.06,-95.99,8996,11,5,A,2,1,,725500,41.32,-95.90
19135,Iowa,Monroe County,41.04,-92.83,8001,11,5,A,2,2,,725500,41.32,-95.90
19137,Iowa,Montgomery County,41.01,-95.17,10421,11,5,A,2,2,,725500,41.32,-95.90
19139,Iowa,Muscatine County,41.46,-91.08,42903,11,5,A,2,2,,725300,41.98,-87.92
19141,Iowa,O'Brien County,43.13,-95.69,14056,13,6,A,2,1,,726580,44.88,-93.23
19143,Iowa,Osceola County,43.39,-95.68,6218,13,6,A,2,1,,726580,44.88,-93.23
19145,Iowa,Page County,40.75,-95.19,15496,11,5,A,2,2,,725500,41.32,-95.90
19147,Iowa,Palo Alto County,43.10,-94.69,9099,13,6,A,2,1,,726580,44.88,-93.23
19149,Iowa,Plymouth County,42.75,-96.20,24874,13,6,A,2,1,,726580,44.88,-93.23
19151,Iowa,Pocahontas County,42.75,-94.70,7138,13,6,A,2,1,,726580,44.88,-93.23
19153,Iowa,Polk County,41.62,-93.64,459862,11,5,A,2,1,,725500,41.32,-95.90
19155,Iowa,Pottawattamie County,41.28,-95.80,93128,11,5,A,2,2,,725500,41.32,-95.90
19157,Iowa,Poweshiek County,41.71,-92.62,18668,11,5,A,2,1,,725500,41.32,-95.90
19159,Iowa,Ringgold County,40.73,-94.24,5051,11,5,A,2,2,,725500,41.32,-95.90
19161,Iowa,Sac County,42.38,-95.09,10035,13,6,A,2,1,,726580,44.88,-93.23
19163,Iowa,Scott County,41.56,-90.57,171387,11,5,A,2,2,,725300,41.98,-87.92
19165,Iowa,Shelby County,41.67,-95.32,11948,11,5,A,2,1,,725500,41.32,-95.90
19167,Iowa,Sioux County,43.08,-96.17,34681,13,6,A,2,1,,726580,44.88,-93.23
19169,Iowa,Story County,42.03,-93.60,94073,11,5,A,2,1,,725500,41.32,-95.90
19171,Iowa,Tama County,42.07,-92.54,17451,11,5,A,2,1,,725500,41.32,-95.90
19173,Iowa,Taylor County,40.76,-94.67,6143,11,5,A,2,2,,725500,41.32,-95.90
19175,Iowa,Union County,41.05,-94.32,12516,11,5,A,2,2,,725500,41.32,-95.90
19177,Iowa,Van Buren County,40.75,-91.94,7468,11,5,A,2,2,,725500,41.32,-95.90
19179,Iowa,Wapello County,41.02,-92.42,35212,11,5,A,2,2,,725500,41.32,-95.90
19181,Iowa,Warren County,41.40,-93.59,47956,11,5,A,2,2,,725500,41.32,-95.90
19183,Iowa,Washington County,41.36,-91.70,22070,11,5,A,2,2,,725500,41.32,-95.90
19185,Iowa,Wayne County,40.74,-93.31,6395,11,5,A,2,2,,725500,41.32,-95.90
19187,Iowa,Webster County,42.48,-94.18,36955,13,6,A,2,1,,726580,44.88,-93.23
19189,Iowa,Winnebago County,43.34,-93.67,10559,13,6,A,2,1,,726580,44.88,-93.23
19191,Iowa,Winneshiek County,43.28,-91.81,20768,13,6,A,2,1,,726580,44.88,-93.23
19193,Iowa,Woodbury County,42.48,-96.34,102271,11,5,A,2,1,,725500,41.32,-95.90
19195,Iowa,Worth County,43.37,-93.25,7624,13,6,A,2,1,,726580,44.88,-93.23
19197,Iowa,Wright County,42.73,-93.76,12840,13,6,A,2,1,,726580,44.88,-93.23
20001,Kansas,Allen County,37.90,-95.37,12909,8,4,A,2,3,,724460,39.30,-94.72
20003,Kansas,Anderson County,38.25,-95.26,7883,8,4,A,2,3,,724460,39.30,-94.72
20005,Kansas,Atchison County,39.56,-95.18,16513,8,4,A,2,2,,724460,39.30,-94.72
20007,Kansas,Barber County,37.21,-98.56,4897,8,4,A,2,3,,724460,39.30,-94.72
20009,Kansas,Barton County,38.39,-98.76,27385,8,4,A,2,3,,724460,39.30,-94.72
20011,Kansas,Bourbon County,37.85,-94.75,14772,8,4,A,2,3,,724460,39.30,-94.72
20013,Kansas,Brown County,39.80,-95.55,9815,8,4,A,2,2,,724460,39.30,-94.72
20015,Kansas,Butler County,37.73,-96.99,66227,8,4,A,2,3,,724460,39.30,-94.72
20017,Kansas,Chase County,38.36,-96.56,2692,8,4,A,2,3,,724460,39.30,-94.72
20019,Kansas,Chautauqua County,37.11,-96.23,3481,8,4,A,2,3,,724460,39.30,-94.72
20021,Kansas,Cherokee County,37.12,-94.76,20787,8,4,A,2,3,,724460,39.30,-94.72
20023,Kansas,Cheyenne County,39.77,-101.74,2693,11,5,A,2,2,,725500,41.32,-95.90
20025,Kansas,Clark County,37.29,-99.87,2144,8,4,A,2,3,,724460,39.30,-94.72
20027,Kansas,Clay County,39.36,-97.12,8317,8,4,A,2,2,,724460,39.30,-94.72
20029,Kansas,Cloud County,39.53,-97.64,9385,11,5,A,2,2,,725500,41.32,-95.90
20031,Kansas,Coffey County,38.25,-95.74,8433,8,4,A,2,3,,724460,39.30,-94.72
20033,Kansas,Comanche County,37.24,-99.37,1954,8,4,A,2,3,,724460,39.30,-94.72
20035,Kansas,Cowley County,37.17,-97.00,35963,8,4,A,2,3,,724460,39.30,-94.72
20037,Kansas,Crawford County,37.44,-94.73,39290,8,4,A,2,3,,724460,39.30,-94.72
20039,Kansas,Decatur County,39.80,-100.49,2908,11,5,A,2,2,,725500,41.32,-95.90
20041,Kansas,Dickinson County,38.88,-97.15,19394,8,4,A,2,3,,724460,39.30,-94.72
20043,Kansas,Doniphan County,39.79,-95.08,7874,8,4,A,2,2,,724460,39.30,-94.72
20045,Kansas,Douglas County,38.94,-95.25,116585,8,4,A,2,3,,724460,39.30,-94.72
20047,Kansas,Edwards County,37.91,-99.35,3030,8,4,A,2,3,,724460,39.30,-94.72
20049,Kansas,Elk County,37.42,-96.24,2694,8,4,A,2,3,,724460,39.30,-94.72
20051,Kansas,Ellis County,38.88,-99.33,29013,11,5,A,2,3,,725500,41.32,-95.90
20053,Kansas,Ellsworth County,38.72,-98.26,6392,8,4,A,2,3,,724460,39.30,-94.72
20055,Kansas,Finney County,37.98,-100.87,37184,8,4,A,2,3,,724460,39.30,-94.72
20057,Kansas,Ford County,37.75,-99.99,34795,8,4,A,2,3,,724460,39.30,-94.72
20059,Kansas,Franklin County,38.60,-95.26,25611,8,4,A,2,3,,724460,39.30,-94.72
20061,Kansas,Geary County,39.04,-96.84,36713,8,4,A,2,3,,724460,39.30,-94.72
20063,Kansas,Gove County,39.05,-100.37,2727,11,5,A,2,2,,725500,41.32,-95.90
20065,Kansas,Graham County,39.36,-99.86,2566,11,5,A,2,2,,725500,41.32,-95.90
20067,Kansas,Grant County,37.58,-101.35,7816,8,4,A,2,3,,724460,39.30,-94.72
20069,Kansas,Gray County,37.73,-100.41,6082,8,4,A,2,3,,724460,39.30,-94.72
20071,Kansas,Greeley County,38.49,-101.76,1301,11,5,A,2,2,,725500,41.32,-95.90
20073,Kansas,Greenwood County,37.86,-96.23,6328,8,4,A,2,3,,724460,39.30,-94.72
20075,Kansas,Hamilton County,37.98,-101.77,2603,11,5,A,2,3,,725500,41.32,-95.90
20077,Kansas,Harper County,37.22,-98.05,5818,8,4,A,2,3,,724460,39.30,-94.72
20079,Kansas,Harvey County,38.05,-97.39,34820,8,4,A,2,3,,724460,39.30,-94.72
20081,Kansas,Haskell County,37.50,-100.89,4106,8,4,A,2,3,,724460,39.30,-94.72
20083,Kansas,Hodgeman County,38.08,-99.87,1916,8,4,A,2,3,,724460,39.30,-94.72
20085,Kansas,Jackson County,39.40,-95.75,13539,8,4,A,2,2,,724460,39.30,-94.72
20087,Kansas,Jefferson County,39.21,-95.40,18855,8,4,A,2,2,,724460,39.30,-94.72
20089,Kansas,Jewell County,39.78,-98.20,3043,11,5,A,2,2,,725500,41.32,-95.90
20091,Kansas,Johnson County,38.93,-94.74,574272,8,4,A,2,3,,724460,39.30,-94.72
20093,Kansas,Kearny County,37.95,-101.24,3915,8,4,A,2,3,,724460,39.30,-94.72
20095,Kansas,Kingman County,37.61,-98.10,7698,8,4,A,2,3,,724460,39.30,-94.72
20097,Kansas,Kiowa County,37.60,-99.26,2513,8,4,A,2,3,,724460,39.30,-94.72
20099,Kansas,Labette County,37.26,-95.26,20960,8,4,A,2,3,,724460,39.30,-94.72
20101,Kansas,Lane County,38.50,-100.49,1687,11,5,A,2,2,,725500,41.32,-95.90
20103,Kansas,Leavenworth County,39.24,-94.96,78797,8,4,A,2,2,,724460,39.30,-94.72
20105,Kansas,Lincoln County,39.04,-98.18,3167,8,4,A,2,3,,724460,39.30,-94.72
20107,Kansas,Linn County,38.24,-94.80,9502,8,4,A,2,3,,724460,39.30,-94.72
20109,Kansas,Logan County,39.10,-100.93,2794,11,5,A,2,2,,725500,41.32,-95.90
20111,Kansas,Lyon County,38.42,-96.18,33212,8,4,A,2,3,,724460,39.30,-94.72
20113,Kansas,McPherson County,38.38,-97.65,29241,8,4,A,2,3,,724460,39.30,-94.72
20115,Kansas,Marion County,38.33,-97.12,12208,8,4,A,2,3,,724460,39.30,-94.72
20117,Kansas,Marshall County,39.80,-96.57,10006,8,4,A,2,2,,724460,39.30,-94.72
20119,Kansas,Meade County,37.29,-100.39,4357,8,4,A,2,3,,724460,39.30,-94.72
20121,Kansas,Miami County,38.59,-94.84,32822,8,4,A,2,3,,724460,39.30,-94.72
20123,Kansas,Mitchell County,39.45,-98.17,6284,11,5,A,2,2,,725500,41.32,-95.90
20125,Kansas,Montgomery County,37.14,-95.70,34065,8,4,A,2,3,,724460,39.30,-94.72
20127,Kansas,Morris County,38.70,-96.59,5698,8,4,A,2,3,,724460,39.30,-94.72
20129,Kansas,Morton County,37.05,-101.84,3110,8,4,A,2,3,,724460,39.30,-94.72
20131,Kansas,Nemaha County,39.83,-95.96,10148,8,4,A,2,2,,724460,39.30,-94.72
20133,Kansas,Neosho County,37.62,-95.39,16416,8,4,A,2,3,,724460,39.30,-94.72
20135,Kansas,Ness County,38.49,-99.90,3105,11,5,A,2,2,,725500,41.32,-95.90
20137,Kansas,Norton County,39.82,-99.88,5560,11,5,A,2,2,,725500,41.32,-95.90
20139,Kansas,Osage County,38.70,-95.71,15936,8,4,A,2,3,,724460,39.30,-94.72
20141,Kansas,Osborne County,39.42,-98.71,3756,11,5,A,2,2,,725500,41.32,-95.90
20143,Kansas,Ottawa County,39.10,-97.68,6065,8,4,A,2,2,,724460,39.30,-94.72
20145,Kansas,Pawnee County,38.18,-99.15,6916,8,4,A,2,3,,724460,39.30,-94.72
20147,Kansas,Phillips County,39.76,-99.35,5533,11,5,A,2,2,,725500,41.32,-95.90
20149,Kansas,Pottawatomie County,39.26,-96.32,22897,8,4,A,2,2,,724460,39.30,-94.72
20151,Kansas,Pratt County,37.65,-98.73,9850,8,4,A,2,3,,724460,39.30,-94.72
20153,Kansas,Rawlins County,39.81,-101.05,2584,11,5,A,2,2,,725500,41.32,-95.90
20155,Kansas,Reno County,38.05,-97.93,63794,8,4,A,2,3,,724460,39.30,-94.72
20157,Kansas,Republic County,39.82,-97.66,4803,11,5,A,2,2,,725500,41.32,-95.90
20159,Kansas,Rice County,38.32,-98.20,10015,8,4,A,2,3,,724460,39.30,-94.72
20161,Kansas,Riley County,39.19,-96.63,75194,8,4,A,2,2,,724460,39.30,-94.72
20163,Kansas,Rooks County,39.31,-99.32,5155,11,5,A,2,2,,725500,41.32,-95.90
20165,Kansas,Rush County,38.53,-99.28,3197,8,4,A,2,3,,724460,39.30,-94.72
20167,Kansas,Russell County,38.90,-98.82,6956,8,4,A,2,3,,724460,39.30,-94.72
20169,Kansas,Saline County,38.82,-97.61,55755,8,4,A,2,3,,724460,39.30,-94.72
20171,Kansas,Scott County,38.48,-100.91,5080,11,5,A,2,2,,725500,41.32,-95.90
20173,Kansas,Sedgwick County,37.68,-97.34,508803,8,4,A,2,3,,724460,39.30,-94.72
20175,Kansas,Seward County,37.05,-100.92,23465,8,4,A,2,3,,724460,39.30,-94.72
20177,Kansas,Shawnee County,39.04,-95.71,178406,8,4,A,2,3,,724460,39.30,-94.72
20179,Kansas,Sheridan County,39.37,-100.47,2539,11,5,A,2,2,,725500,41.32,-95.90
20181,Kansas,Sherman County,39.35,-101.73,6110,11,5,A,2,2,,725500,41.32,-95.90
20183,Kansas,Smith County,39.77,-98.81,3769,11,5,A,2,2,,725500,41.32,-95.90
20185,Kansas,Stafford County,38.01,-98.74,4297,8,4,A,2,3,,724460,39.30,-94.72
20187,Kansas,Stanton County,37.57,-101.76,2111,8,4,A,2,3,,724460,39.30,-94.72
20189,Kansas,Stevens County,37.19,-101.32,5801,8,4,A,2,3,,724460,39.30,-94.72
20191,Kansas,Sumner County,37.30,-97.41,23528,8,4,A,2,3,,724460,39.30,-94.72
20193,Kansas,Thomas County,39.38,-101.05,7891,11,5,A,2,2,,725500,41.32,-95.90
20195,Kansas,Trego County,39.00,-99.88,2902,11,5,A,2,2,,725500,41.32,-95.90
20197,Kansas,Wabaunsee County,38.98,-96.18,7022,8,4,A,2,3,,724460,39.30,-94.72
20199,Kansas,Wallace County,38.89,-101.77,1506,11,5,A,2,2,,725500,41.32,-95.90
20201,Kansas,Washington County,39.78,-97.05,5598,8,4,A,2,2,,724460,39.30,-94.72
20203,Kansas,Wichita County,38.49,-101.35,2176,11,5,A,2,2,,725500,41.32,-95.90
20205,Kansas,Wilson County,37.51,-95.74,9028,8,4,A,2,3,,724460,39.30,-94.72
20207,Kansas,Woodson County,37.87,-95.74,3157,8,4,A,2,3,,724460,39.30,-94.72
20209,Kansas,Wyandotte County,39.10,-94.71,161636,8,4,A,2,2,,724460,39.30,-94.72
21001,Kentucky,Adair County,37.11,-85.28,19204,8,4,A,3,3,,724230,38.18,-85.73
21003,Kentucky,Allen County,36.75,-86.21,20384,8,4,A,3,3,,724230,38.18,-85.73
21005,Kentucky,Anderson County,38.03,-84.92,21888,8,4,A,3,3,,724230,38.18,-85.73
21007,Kentucky,Ballard County,37.04,-88.98,8240,8,4,A,3,3,,724230,38.18,-85.73
21009,Kentucky,Barren County,37.00,-85.93,43148,8,4,A,3,3,,724230,38.18,-85.73
21011,Kentucky,Bath County,38.14,-83.74,12206,8,4,A,3,3,,724230,38.18,-85.73
21013,Kentucky,Bell County,36.69,-83.70,27778,8,4,A,3,3,,724230,38.18,-85.73
21015,Kentucky,Boone County,38.99,-84.68,126413,8,4,A,3,3,,724230,38.18,-85.73
21017,Kentucky,Bourbon County,38.20,-84.25,19972,8,4,A,3,3,,724230,38.18,-85.73
21019,Kentucky,Boyd County,38.43,-82.67,48832,8,4,A,3,3,,724230,38.18,-85.73
21021,Kentucky,Boyle County,37.64,-84.80,29706,8,4,A,3,3,,724230,38.18,-85.73
21023,Kentucky,Bracken County,38.70,-84.07,8406,8,4,A,3,3,,724230,38.18,-85.73
21025,Kentucky,Breathitt County,37.52,-83.38,13409,8,4,A,3,3,,724230,38.18,-85.73
21027,Kentucky,Breckinridge County,37.77,-86.41,19888,8,4,A,3,3,,724230,38.18,-85.73
21029,Kentucky,Bullitt County,38.02,-85.66,77955,8,4,A,3,3,,724230,38.18,-85.73
21031,Kentucky,Butler County,37.22,-86.68,12875,8,4,A,3,3,,724230,38.18,-85.73
21033,Kentucky,Caldwell County,37.13,-87.88,12725,8,4,A,3,3,,724230,38.18,-85.73
21035,Kentucky,Calloway County,36.62,-88.31,38282,8,4,A,3,3,,724230,38.18,-85.73
21037,Kentucky,Campbell County,39.04,-84.44,91833,8,4,A,3,3,,724230,38.18,-85.73
21039,Kentucky,Carlisle County,36.85,-88.95,4978,8,4,A,3,3,,724230,38.18,-85.73
21041,Kentucky,Carroll County,38.67,-85.14,10815,8,4,A,3,3,,724230,38.18,-85.73
21043,Kentucky,Carter County,38.31,-83.04,27223,8,4,A,3,3,,724230,38.18,-85.73
21045,Kentucky,Casey County,37.30,-84.92,15891,8,4,A,3,3,,724230,38.18,-85.73
21047,Kentucky,Christian County,36.81,-87.48,74250,8,4,A,3,3,,724230,38.18,-85.73
21049,Kentucky,Clark County,37.99,-84.18,35758,8,4,A,3,3,,724230,38.18,-85.73
21051,Kentucky,Clay County,37.17,-83.75,21147,8,4,A,3,3,,724230,38.18,-85.73
21053,Kentucky,Clinton County,36.71,-85.14,10165,8,4,A,3,3,,724230,38.18,-85.73
21055,Kentucky,Crittenden County,37.33,-88.10,9224,8,4,A,3,3,,724230,38.18,-85.73
21057,Kentucky,Cumberland County,36.78,-85.39,6745,8,4,A,3,3,,724230,38.18,-85.73
21059,Kentucky,Daviess County,37.75,-87.09,98275,8,4,A,3,3,,724230,38.18,-85.73
21061,Kentucky,Edmonson County,37.20,-86.26,12013,8,4,A,3,3,,724230,38.18,-85.73
21063,Kentucky,Elliott County,38.12,-83.11,7672,8,4,A,3,3,,724230,38.18,-85.73
21065,Kentucky,Estill County,37.71,-83.99,14447,8,4,A,3,3,,724230,38.18,-85.73
21067,Kentucky,Fayette County,38.02,-84.50,310797,8,4,A,3,3,,724230,38.18,-85.73
21069,Kentucky,Fleming County,38.39,-83.71,14545,8,4,A,3,3,,724230,38.18,-85.73
21071,Kentucky,Floyd County,37.55,-82.74,38108,8,4,A,3,3,,724230,38.18,-85.73
21073,Kentucky,Franklin County,38.20,-84.87,49880,8,4,A,3,3,,724230,38.18,-85.73
21075,Kentucky,Fulton County,36.54,-89.04,6265,8,4,A,3,3,,724230,38.18,-85.73
21077,Kentucky,Gallatin County,38.76,-84.84,8589,8,4,A,3,3,,724230,38.18,-85.73
21079,Kentucky,Garrard County,37.65,-84.58,16858,8,4,A,3,3,,724230,38.18,-85.73
21081,Kentucky,Grant County,38.69,-84.60,24875,8,4,A,3,3,,724230,38.18,-85.73
21083,Kentucky,Graves County,36.74,-88.65,37618,8,4,A,3,3,,724230,38.18,-85.73
21085,Kentucky,Grayson County,37.47,-86.31,26194,8,4,A,3,3,,724230,38.18,-85.73
21087,Kentucky,Green County,37.27,-85.54,11043,8,4,A,3,3,,724230,38.18,-85.73
21089,Kentucky,Greenup County,38.56,-82.81,36308,8,4,A,3,3,,724230,38.18,-85.73
21091,Kentucky,Hancock County,37.87,-86.80,8753,8,4,A,3,3,,724230,38.18,-85.73
21093,Kentucky,Hardin County,37.75,-85.92,108266,8,4,A,3,3,,724230,38.18,-85.73
21095,Kentucky,Harlan County,36.87,-83.23,28163,8,4,A,3,3,,724230,38.18,-85.73
21097,Kentucky,Harrison County,38.42,-84.31,18592,8,4,A,3,3,,724230,38.18,-85.73
21099,Kentucky,Hart County,37.28,-85.89,18597,8,4,A,3,3,,724230,38.18,-85.73
21101,Kentucky,Henderson County,37.82,-87.56,46467,8,4,A,3,3,,724230,38.18,-85.73
21103,Kentucky,Henry County,38.43,-85.18,15572,8,4,A,3,3,,724230,38.18,-85.73
21105,Kentucky,Hickman County,36.67,-88.96,4734,8,4,A,3,3,,724230,38.18,-85.73
21107,Kentucky,Hopkins County,37.31,-87.52,46376,8,4,A,3,3,,724230,38.18,-85.73
21109,Kentucky,Jackson County,37.40,-83.99,13289,8,4,A,3,3,,724230,38.18,-85.73
21111,Kentucky,Jefferson County,38.20,-85.69,760026,8,4,A,3,3,,724230,38.18,-85.73
21113,Kentucky,Jessamine County,37.88,-84.59,50815,8,4,A,3,3,,724230,38.18,-85.73
21115,Kentucky,Johnson County,37.83,-82.81,23262,8,4,A,3,3,,724230,38.18,-85.73
21117,Kentucky,Kenton County,39.01,-84.55,163929,8,4,A,3,3,,724230,38.18,-85.73
21119,Kentucky,Knott County,37.33,-82.94,15892,8,4,A,3,3,,724230,38.18,-85.73
21121,Kentucky,Knox County,36.90,-83.92,31798,8,4,A,3,3,,724230,38.18,-85.73
21123,Kentucky,Larue County,37.54,-85.72,14180,8,4,A,3,3,,724230,38.18,-85.73
21125,Kentucky,Laurel County,37.09,-84.09,60015,8,4,A,3,3,,724230,38.18,-85.73
21127,Kentucky,Lawrence County,38.08,-82.68,15804,8,4,A,3,3,,724230,38.18,-85.73
21129,Kentucky,Lee County,37.59,-83.70,7594,8,4,A,3,3,,724230,38.18,-85.73
21131,Kentucky,Leslie County,37.12,-83.38,10918,8,4,A,3,3,,724230,38.18,-85.73
21133,Kentucky,Letcher County,37.15,-82.81,23359,8,4,A,3,3,,724230,38.18,-85.73
21135,Kentucky,Lewis County,38.56,-83.35,13880,8,4,A,3,3,,724230,38.18,-85.73
21137,Kentucky,Lincoln County,37.47,-84.67,24445,8,4,A,3,3,,724230,38.18,-85.73
21139,Kentucky,Livingston County,37.14,-88.35,9359,8,4,A,3,3,,724230,38.18,-85.73
21141,Kentucky,Logan County,36.86,-86.87,26867,8,4,A,3,3,,724230,38.18,-85.73
21143,Kentucky,Lyon County,37.06,-88.08,8430,8,4,A,3,3,,724230,38.18,-85.73
21145,Kentucky,McCracken County,37.05,-88.65,65316,8,4,A,3,3,,724230,38.18,-85.73
21147,Kentucky,McCreary County,36.72,-84.45,17863,8,4,A,3,3,,724230,38.18,-85.73
21149,Kentucky,McLean County,37.51,-87.22,9478,8,4,A,3,3,,724230,38.18,-85.73
21151,Kentucky,Madison County,37.71,-84.29,87340,8,4,A,3,3,,724230,38.18,-85.73
21153,Kentucky,Magoffin County,37.73,-83.06,12913,8,4,A,3,3,,724230,38.18,-85.73
21155,Kentucky,Marion County,37.57,-85.29,20007,8,4,A,3,3,,724230,38.18,-85.73
21157,Kentucky,Marshall County,36.90,-88.34,30953,8,4,A,3,3,,724230,38.18,-85.73
21159,Kentucky,Martin County,37.83,-82.52,12537,8,4,A,3,3,,724230,38.18,-85.73
21161,Kentucky,Mason County,38.62,-83.79,17166,8,4,A,3,3,,724230,38.18,-85.73
21163,Kentucky,Meade County,37.93,-86.13,29139,8,4,A,3,3,,724230,38.18,-85.73
21165,Kentucky,Menifee County,37.94,-83.60,6287,8,4,A,3,3,,724230,38.18,-85.73
21167,Kentucky,Mercer County,37.79,-84.85,21319,8,4,A,3,3,,724230,38.18,-85.73
21169,Kentucky,Metcalfe County,36.99,-85.64,9990,8,4,A,3,3,,724230,38.18,-85.73
21171,Kentucky,Monroe County,36.71,-85.73,10704,8,4,A,3,3,,724230,38.18,-85.73
21173,Kentucky,Montgomery County,38.04,-83.92,27474,8,4,A,3,3,,724230,38.18,-85.73
21175,Kentucky,Morgan County,37.91,-83.27,13303,8,4,A,3,3,,724230,38.18,-85.73
21177,Kentucky,Muhlenberg County,37.24,-87.15,31207,8,4,A,3,3,,724230,38.18,-85.73
21179,Kentucky,Nelson County,37.82,-85.46,44812,8,4,A,3,3,,724230,38.18,-85.73
21181,Kentucky,Nicholas County,38.33,-84.02,7041,8,4,A,3,3,,724230,38.18,-85.73
21183,Kentucky,Ohio County,37.47,-86.86,23977,8,4,A,3,3,,724230,38.18,-85.73
21185,Kentucky,Oldham County,38.37,-85.46,63490,8,4,A,3,3,,724230,38.18,-85.73
21187,Kentucky,Owen County,38.53,-84.83,10645,8,4,A,3,3,,724230,38.18,-85.73
21189,Kentucky,Owsley County,37.45,-83.68,4508,8,4,A,3,3,,724230,38.18,-85.73
21191,Kentucky,Pendleton County,38.72,-84.36,14493,8,4,A,3,3,,724230,38.18,-85.73
21193,Kentucky,Perry County,37.26,-83.20,27597,8,4,A,3,3,,724230,38.18,-85.73
21195,Kentucky,Pike County,37.46,-82.42,63034,8,4,A,3,3,,724230,38.18,-85.73
21197,Kentucky,Powell County,37.85,-83.88,12434,8,4,A,3,3,,724230,38.18,-85.73
21199,Kentucky,Pulaski County,37.09,-84.61,63825,8,4,A,3,3,,724230,38.18,-85.73
21201,Kentucky,Robertson County,38.52,-84.05,2197,8,4,A,3,3,,724230,38.18,-85.73
21203,Kentucky,Rockcastle County,37.38,-84.35,16826,8,4,A,3,3,,724230,38.18,-85.73
21205,Kentucky,Rowan County,38.19,-83.44,23655,8,4,A,3,3,,724230,38.18,-85.73
21207,Kentucky,Russell County,37.03,-85.06,17774,8,4,A,3,3,,724230,38.18,-85.73
21209,Kentucky,Scott County,38.23,-84.57,51284,8,4,A,3,3,,724230,38.18,-85.73
21211,Kentucky,Shelby County,38.21,-85.23,44875,8,4,A,3,3,,724230,38.18,-85.73
21213,Kentucky,Simpson County,36.73,-86.57,17826,8,4,A,3,3,,724230,38.18,-85.73
21215,Kentucky,Spencer County,38.06,-85.35,17668,8,4,A,3,3,,724230,38.18,-85.73
21217,Kentucky,Taylor County,37.35,-85.34,25257,8,4,A,3,3,,724230,38.18,-85.73
21219,Kentucky,Todd County,36.81,-87.17,12520,8,4,A,3,3,,724230,38.18,-85.73
21221,Kentucky,Trigg County,36.85,-87.84,14142,8,4,A,3,3,,724230,38.18,-85.73
21223,Kentucky,Trimble County,38.62,-85.33,8786,8,4,A,3,3,,724230,38.18,-85.73
21225,Kentucky,Union County,37.65,-87.93,15165,8,4,A,3,3,,724230,38.18,-85.73
21227,Kentucky,Warren County,36.97,-86.43,120460,8,4,A,3,3,,724230,38.18,-85.73
21229,Kentucky,Washington County,37.74,-85.19,11959,8,4,A,3,3,,724230,38.18,-85.73
21231,Kentucky,Wayne County,36.84,-84.84,20486,8,4,A,3,3,,724230,38.18,-85.73
21233,Kentucky,Webster County,37.50,-87.69,13236,8,4,A,3,3,,724230,38.18,-85.73
21235,Kentucky,Whitley County,36.81,-84.14,35503,8,4,A,3,3,,724230,38.18,-85.73
21237,Kentucky,Wolfe County,37.74,-83.51,7214,8,4,A,3,3,,724230,38.18,-85.73
21239,Kentucky,Woodford County,38.05,-84.73,25563,8,4,A,3,3,,724230,38.18,-85.73
22001,Louisiana,Acadia Parish,30.28,-92.35,62486,3,2,A,3,5,,722430,30.00,-95.37
22003,Louisiana,Allen Parish,30.67,-92.77,25713,3,2,A,3,5,,722430,30.00,-95.37
22005,Louisiana,Ascension Parish,30.25,-90.93,117029,3,2,A,3,5,,722430,30.00,-95.37
22007,Louisiana,Assumption Parish,29.92,-91.07,23034,3,2,A,3,5,,722430,30.00,-95.37
22009,Louisiana,Avoyelles Parish,31.05,-92.06,41145,3,2,A,3,5,,722430,30.00,-95.37
22011,Louisiana,Beauregard Parish,30.73,-93.29,36198,3,2,A,3,5,,722430,30.00,-95.37
22013,Louisiana,Bienville Parish,32.39,-93.08,13885,5,3,A,3,5,,723403,34.75,-92.23
22015,Louisiana,Bossier Parish,32.56,-93.66,125064,5,3,A,3,5,,722583,32.85,-96.85
22017,Louisiana,Caddo Parish,32.47,-93.80,252603,5,3,A,3,5,,722583,32.85,-96.85
22019,Louisiana,Calcasieu Parish,30.23,-93.26,197204,3,2,A,3,5,,722430,30.00,-95.37
22021,Louisiana,Caldwell Parish,32.08,-92.10,9894,5,3,A,3,5,,723403,34.75,-92.23
22023,Louisiana,Cameron Parish,29.96,-93.21,6679,3,2,A,3,5,,722430,30.00,-95.37
22025,Louisiana,Catahoula Parish,31.70,-91.82,10151,5,3,A,3,5,,723403,34.75,-92.23
22027,Louisiana,Claiborne Parish,32.83,-93.03,16412,5,3,A,3,5,,723403,34.75,-92.23
22029,Louisiana,Concordia Parish,31.59,-91.55,20466,5,3,A,3,5,,723403,34.75,-92.23
22031,Louisiana,De Soto Parish,32.10,-93.78,27142,5,3,A,3,5,,722583,32.85,-96.85
22033,Louisiana,East Baton Rouge Parish,30.46,-91.10,446042,3,2,A,3,5,,722430,30.00,-95.37
22035,Louisiana,East Carroll Parish,32.77,-91.20,7487,5,3,A,3,5,,723403,34.75,-92.23
22037,Louisiana,East Feliciana Parish,30.83,-91.09,19813,3,2,A,3,5,,722430,30.00,-95.37
22039,Louisiana,Evangeline Parish,30.69,-92.36,33700,3,2,A,3,5,,722430,30.00,-95.37
22041,Louisiana,Franklin Parish,32.14,-91.70,20441,5,3,A,3,5,,723403,34.75,-92.23
22043,Louisiana,Grant Parish,31.53,-92.54,22384,5,3,A,3,5,,723403,34.75,-92.23
22045,Louisiana,Iberia Parish,29.99,-91.81,73913,3,2,A,3,5,,722430,30.00,-95.37
22047,Louisiana,Iberville Parish,30.27,-91.23,33327,3,2,A,3,5,,722430,30.00,-95.37
22049,Louisiana,Jackson Parish,32.28,-92.65,15994,5,3,A,3,5,,723403,34.75,-92.23
22051,Louisiana,Jefferson Parish,29.95,-90.15,435716,3,2,A,3,5,,722430,30.00,-95.37
22053,Louisiana,Jefferson Davis Parish,30.24,-92.74,31477,3,2,A,3,5,,722430,30.00,-95.37
22055,Louisiana,Lafayette Parish,30.21,-92.04,235644,3,2,A,3,5,,722430,30.00,-95.37
22057,Louisiana,Lafourche Parish,29.68,-90.62,98020,3,2,A,3,5,,722430,30.00,-95.37
22059,Louisiana,La Salle Parish,31.73,-92.17,14839,3,2,A,3,5,,722430,30.00,-95.37
22061,Louisiana,Lincoln Parish,32.55,-92.65,47617,5,3,A,3,5,,723403,34.75,-92.23
22063,Louisiana,Livingston Parish,30.48,-90.84,135751,3,2,A,3,5,,722430,30.00,-95.37
22065,Louisiana,Madison Parish,32.40,-91.20,11843,5,3,A,3,5,,723403,34.75,-92.23
22067,Louisiana,Morehouse Parish,32.79,-91.89,26760,5,3,A,3,5,,723403,34.75,-92.23
22069,Louisiana,Natchitoches Parish,31.76,-93.10,39166,5,3,A,3,5,,723403,34.75,-92.23
22071,Louisiana,Orleans Parish,29.97,-90.05,384320,3,2,A,3,5,,722430,30.00,-95.37
22073,Louisiana,Ouachita Parish,32.51,-92.13,156325,5,3,A,3,5,,723403,34.75,-92.23
22075,Louisiana,Plaquemines Parish,29.72,-89.90,23447,3,2,A,3,5,,722430,30.00,-95.37
22077,Louisiana,Pointe Coupee Parish,30.67,-91.50,22406,3,2,A,3,5,,722430,30.00,-95.37
22079,Louisiana,Rapides Parish,31.28,-92.46,132488,3,2,A,3,5,,722430,30.00,-95.37
22081,Louisiana,Red River Parish,32.05,-93.31,8669,5,3,A,3,5,,723403,34.75,-92.23
22083,Louisiana,Richland Parish,32.44,-91.71,20740,5,3,A,3,5,,723403,34.75,-92.23
22085,Louisiana,Sabine Parish,31.58,-93.57,24199,5,3,A,3,5,,723403,34.75,-92.23
22087,Louisiana,St. Bernard Parish,29.93,-89.93,44409,3,2,A,3,5,,722430,30.00,-95.37
22089,Louisiana,St. Charles Parish,29.94,-90.38,52745,3,2,A,3,5,,722430,30.00,-95.37
22091,Louisiana,St. Helena Parish,30.79,-90.69,10619,3,2,A,3,5,,722430,30.00,-95.37
22093,Louisiana,St. James Parish,30.02,-90.74,21638,3,2,A,3,5,,722430,30.00,-95.37
22095,Louisiana,St. John the Baptist Parish,30.07,-90.51,43745,3,2,A,3,5,,722430,30.00,-95.37
22097,Louisiana,St. Landry Parish,30.51,-92.11,83709,3,2,A,3,5,,722430,30.00,-95.37
22099,Louisiana,St. Martin Parish,30.23,-91.84,53315,3,2,A,3,5,,722430,30.00,-95.37
22101,Louisiana,St. Mary Parish,29.74,-91.34,53162,3,2,A,3,5,,722430,30.00,-95.37
22103,Louisiana,St. Tammany Parish,30.38,-89.95,245829,3,2,A,3,5,,722430,30.00,-95.37
22105,Louisiana,Tangipahoa Parish,30.57,-90.46,127049,3,2,A,3,5,,722430,30.00,-95.37
22107,Louisiana,Tensas Parish,31.96,-91.30,4830,5,3,A,3,5,,723403,34.75,-92.23
22109,Louisiana,Terrebonne Parish,29.59,-90.72,113328,3,2,A,3,5,,722430,30.00,-95.37
22111,Louisiana,Union Parish,32.79,-92.40,22539,5,3,A,3,5,,723403,34.75,-92.23
22113,Louisiana,Vermilion Parish,29.99,-92.17,59616,3,2,A,3,5,,722430,30.00,-95.37
22115,Louisiana,Vernon Parish,31.09,-93.25,52132,5,3,A,3,5,,723403,34.75,-92.23
22117,Louisiana,Washington Parish,30.84,-90.00,46286,3,2,A,3,5,,722430,30.00,-95.37
22119,Louisiana,Webster Parish,32.70,-93.34,40333,5,3,A,3,5,,723403,34.75,-92.23
22121,Louisiana,West Baton Rouge Parish,30.44,-91.26,25085,3,2,A,3,5,,722430,30.00,-95.37
22123,Louisiana,West Carroll Parish,32.82,-91.43,11525,5,3,A,3,5,,723403,34.75,-92.23
22125,Louisiana,West Feliciana Parish,30.89,-91.40,15406,3,2,A,3,5,,722430,30.00,-95.37
22127,Louisiana,Winn Parish,31.93,-92.68,14743,5,3,A,3,5,,723403,34.75,-92.23
23001,Maine,Androscoggin County,44.12,-70.20,107440,13,6,A,1,1,,726170,44.47,-73.15
23003,Maine,Aroostook County,46.71,-68.09,69447,15,7,A,1,1,,727120,46.87,-68.03
23005,Maine,Cumberland County,43.75,-70.31,287797,13,6,A,1,1,,726170,44.47,-73.15
23007,Maine,Franklin County,44.71,-70.23,30296,13,6,A,1,1,,726170,44.47,-73.15
23009,Maine,Hancock County,44.47,-68.47,54696,13,6,A,1,1,,726170,44.47,-73.15
23011,Maine,Kennebec County,44.40,-69.75,121112,13,6,A,1,1,,726170,44.47,-73.15
23013,Maine,Knox County,44.13,-69.16,39676,13,6,A,1,1,,726170,44.47,-73.15
23015,Maine,Lincoln County,44.03,-69.56,34170,13,6,A,1,1,,726170,44.47,-73.15
23017,Maine,Oxford County,44.28,-70.61,57238,13,6,A,1,1,,726170,44.47,-73.15
23019,Maine,Penobscot County,44.95,-68.79,153414,13,6,A,1,1,,726170,44.47,-73.15
23021,Maine,Piscataquis County,45.24,-69.26,17026,13,6,A,1,1,,726170,44.47,-73.15
23023,Maine,Sagadahoc County,43.96,-69.87,35045,13,6,A,1,1,,726170,44.47,-73.15
23025,Maine,Somerset County,44.82,-69.69,51163,13,6,A,1,1,,726170,44.47,-73.15
23027,Maine,Waldo County,44.49,-69.09,39051,13,6,A,1,1,,726170,44.47,-73.15
23029,Maine,Washington County,44.86,-67.46,31808,13,6,A,1,1,,726170,44.47,-73.15
23031,Maine,York County,43.42,-70.64,200710,13,6,A,1,1,,726170,44.47,-73.15
24001,Maryland,Allegany County,39.63,-78.82,72952,8,4,A,3,2,,724010,37.52,-77.32
24003,Maryland,Anne Arundel County,39.07,-76.60,560133,8,4,A,3,3,,724010,37.52,-77.32
24005,Maryland,Baltimore County,39.37,-76.62,826925,8,4,A,3,3,,724010,37.52,-77.32
24009,Maryland,Calvert County,38.55,-76.54,90613,8,4,A,3,3,,724010,37.52,-77.32
24011,Maryland,Caroline County,38.87,-75.83,32538,8,4,A,3,3,,724010,37.52,-77.32
24013,Maryland,Carroll County,39.53,-76.99,167830,8,4,A,3,3,,724010,37.52,-77.32
24015,Maryland,Cecil County,39.61,-75.94,102383,8,4,A,3,3,,744860,40.65,-73.80
24017,Maryland,Charles County,38.58,-76.95,154747,8,4,A,3,3,,724010,37.52,-77.32
24019,Maryland,Dorchester County,38.57,-76.01,32578,8,4,A,3,3,,724010,37.52,-77.32
24021,Maryland,Frederick County,39.43,-77.40,243675,8,4,A,3,3,,724010,37.52,-77.32
24023,Maryland,Garrett County,39.51,-79.30,29679,11,5,A,3,2,,725240,41.40,-81.85
24025,Maryland,Harford County,39.52,-76.31,250105,8,4,A,3,3,,724010,37.52,-77.32
24027,Maryland,Howard County,39.22,-76.86,309284,8,4,A,3,3,,724010,37.52,-77.32
24029,Maryland,Kent County,39.25,-76.06,19820,8,4,A,3,3,,724010,37.52,-77.32
24031,Maryland,Montgomery County,39.09,-77.12,1030447,8,4,A,3,3,,724010,37.52,-77.32
24033,Maryland,Prince George's County,38.91,-76.89,904430,8,4,A,3,3,,724010,37.52,-77.32
24035,Maryland,Queen Anne's County,39.02,-76.15,48804,8,4,A,3,3,,724010,37.52,-77.32
24037,Maryland,St. Mary's County,38.31,-76.58,110382,8,4,A,3,3,,724010,37.52,-77.32
24039,Maryland,Somerset County,38.13,-75.74,25859,8,4,A,3,3,,724010,37.52,-77.32
24041,Maryland,Talbot County,38.77,-76.10,37643,8,4,A,3,3,,724010,37.52,-77.32
24043,Maryland,Washington County,39.62,-77.73,149573,8,4,A,3,2,,724010,37.52,-77.32
24045,Maryland,Wicomico County,38.37,-75.60,101539,8,4,A,3,3,,724010,37.52,-77.32
24047,Maryland,Worcester County,38.30,-75.24,51675,8,4,A,3,3,,724010,37.52,-77.32
24510,Maryland,Baltimore City,39.31,-76.62,622793,8,4,A,3,3,,724010,37.52,-77.32
25001,Massachusetts,Barnstable County,42.46,-73.22,214914,11,5,A,1,2,,725090,42.37,-71.02
25003,Massachusetts,Berkshire County,42.46,-73.22,128715,11,5,A,1,1,,725090,42.37,-71.02
25005,Massachusetts,Bristol County,41.79,-71.11,554194,11,5,A,1,2,,725090,42.37,-71.02
25007,Massachusetts,Dukes County,41.42,-70.60,17356,11,5,A,1,2,,725090,42.37,-71.02
25009,Massachusetts,Essex County,42.62,-70.99,769091,11,5,A,1,2,,725090,42.37,-71.02
25011,Massachusetts,Franklin County,42.58,-72.56,70862,11,5,A,1,2,,725090,42.37,-71.02
25013,Massachusetts,Hampden County,42.13,-72.58,468161,11,5,A,1,2,,725090,42.37,-71.02
25015,Massachusetts,Hampshire County,42.31,-72.57,160939,11,5,A,1,2,,725090,42.37,-71.02
25017,Massachusetts,Middlesex County,42.45,-71.26,1570315,11,5,A,1,2,,725090,42.37,-71.02
25019,Massachusetts,Nantucket County,41.27,-70.09,10856,11,5,A,1,2,,725090,42.37,-71.02
25021,Massachusetts,Norfolk County,42.20,-71.15,692254,11,5,A,1,2,,725090,42.37,-71.02
25023,Massachusetts,Plymouth County,42.02,-70.85,507022,11,5,A,1,2,,725090,42.37,-71.02
25025,Massachusetts,Suffolk County,42.33,-71.08,767254,11,5,A,1,2,,725090,42.37,-71.02
25027,Massachusetts,Worcester County,42.30,-71.81,813475,11,5,A,1,2,,725090,42.37,-71.02
26001,Michigan,Alcona County,44.67,-83.47,10454,13,6,A,2,1,,726400,42.95,-87.90
26003,Michigan,Alger County,46.39,-86.70,9459,13,6,A,2,1,,726400,42.95,-87.90
26005,Michigan,Allegan County,42.60,-85.87,113847,11,5,A,2,2,,725300,41.98,-87.92
26007,Michigan,Alpena County,45.05,-83.50,28988,13,6,A,2,1,,726400,42.95,-87.90
26009,Michigan,Antrim County,44.98,-85.20,23267,13,6,A,2,1,,726400,42.95,-87.90
26011,Michigan,Arenac County,44.04,-83.88,15353,13,6,A,2,1,,726400,42.95,-87.90
26013,Michigan,Baraga County,46.77,-88.45,8654,15,7,A,2,1,,727455,47.38,-92.85
26015,Michigan,Barry County,42.61,-85.34,59281,11,5,A,2,2,,725300,41.98,-87.92
26017,Michigan,Bay County,43.63,-83.93,106179,11,5,A,2,1,,725240,41.40,-81.85
26019,Michigan,Benzie County,44.65,-86.02,17519,13,6,A,2,1,,726400,42.95,-87.90
26021,Michigan,Berrien County,41.99,-86.41,155233,11,5,A,2,2,,725300,41.98,-87.92
26023,Michigan,Branch County,41.93,-85.03,43545,11,5,A,2,2,,725300,41.98,-87.92
26025,Michigan,Calhoun County,42.29,-85.10,134878,11,5,A,2,2,,725300,41.98,-87.92
26027,Michigan,Cass County,41.89,-86.04,51608,11,5,A,2,2,,725300,41.98,-87.92
26029,Michigan,Charlevoix County,45.25,-85.12,26121,13,6,A,2,1,,726400,42.95,-87.90
26031,Michigan,Cheboygan County,45.51,-84.52,25675,13,6,A,2,1,,726400,42.95,-87.90
26033,Michigan,Chippewa County,46.37,-84.40,38321,15,7,A,2,1,,727455,47.38,-92.85
26035,Michigan,Clare County,43.95,-84.83,30652,13,6,A,2,1,,726400,42.95,-87.90
26037,Michigan,Clinton County,42.89,-84.56,77297,11,5,A,2,2,,725300,41.98,-87.92
26039,Michigan,Crawford County,44.66,-84.67,13745,13,6,A,2,1,,726400,42.95,-87.90
26041,Michigan,Delta County,45.80,-87.07,36559,13,6,A,2,1,,726400,42.95,-87.90
26043,Michigan,Dickinson County,45.83,-88.01,25957,13,6,A,2,1,,726400,42.95,-87.90
26045,Michigan,Eaton County,42.64,-84.74,108579,11,5,A,2,2,,725300,41.98,-87.92
26047,Michigan,Emmet County,45.43,-84.91,33204,13,6,A,2,1,,726400,42.95,-87.90
26049,Michigan,Genesee County,43.01,-83.69,412895,11,5,A,2,2,,725240,41.40,-81.85
26051,Michigan,Gladwin County,43.97,-84.44,25411,13,6,A,2,1,,726400,42.95,-87.90
26053,Michigan,Gogebic County,46.44,-89.98,15737,15,7,A,2,1,,727455,47.38,-92.85
26055,Michigan,Grand Traverse County,44.71,-85.61,90782,13,6,A,2,1,,726400,42.95,-87.90
26057,Michigan,Gratiot County,43.34,-84.63,41665,11,5,A,2,1,,725300,41.98,-87.92
26059,Michigan,Hillsdale County,41.92,-84.60,45830,11,5,A,2,2,,725240,41.40,-81.85
26061,Michigan,Houghton County,47.13,-88.54,36495,15,7,A,2,1,,727455,47.38,-92.85
26063,Michigan,Huron County,43.83,-83.06,32065,13,6,A,2,1,,726400,42.95,-87.90
26065,Michigan,Ingham County,42.69,-84.49,284582,11,5,A,2,2,,725240,41.40,-81.85
26067,Michigan,Ionia County,42.96,-85.09,64294,11,5,A,2,2,,725300,41.98,-87.92
26069,Michigan,Iosco County,44.36,-83.54,25420,13,6,A,2,1,,726400,42.95,-87.90
26071,Michigan,Iron County,46.10,-88.53,11387,15,7,A,2,1,,727455,47.38,-92.85
26073,Michigan,Isabella County,43.61,-84.80,70616,13,6,A,2,1,,726400,42.95,-87.90
26075,Michigan,Jackson County,42.24,-84.41,159741,11,5,A,2,2,,725240,41.40,-81.85
26077,Michigan,Kalamazoo County,42.26,-85.58,258818,11,5,A,2,2,,725300,41.98,-87.92
26079,Michigan,Kalkaska County,44.72,-85.17,17394,13,6,A,2,1,,726400,42.95,-87.90
26081,Michigan,Kent County,42.96,-85.63,629237,11,5,A,2,2,,725300,41.98,-87.92
26083,Michigan,Keweenaw County,47.33,-88.30,2217,15,7,A,2,1,,727455,47.38,-92.85
26085,Michigan,Lake County,43.96,-85.80,11341,13,6,A,2,1,,726400,42.95,-87.90
26087,Michigan,Lapeer County,43.06,-83.25,88153,11,5,A,2,2,,725240,41.40,-81.85
26089,Michigan,Leelanau County,44.91,-85.73,21915,13,6,A,2,1,,726400,42.95,-87.90
26091,Michigan,Lenawee County,41.93,-84.05,99047,11,5,A,2,2,,725240,41.40,-81.85
